[
   {
      "started_at":"2019-08-01 03:00:20.297000+00:00",
      "ended_at":"2019-08-01 03:13:29.343000+00:00",
      "duration":789,
      "start_station_id":"482",
      "start_station_name":"Nydalen",
      "start_station_description":"langs Gjerdrums vei",
      "start_station_latitude":59.952868,
      "start_station_longitude":10.766483,
      "end_station_id":"621",
      "end_station_name":"Torshovdalen \u00f8st",
      "end_station_description":"ved Mailundveien rundkj\u00f8ring",
      "end_station_latitude":59.9328069,
      "end_station_longitude":10.7774484
   },
   {
      "started_at":"2019-08-01 03:00:22.277000+00:00",
      "ended_at":"2019-08-01 03:07:16.056000+00:00",
      "duration":413,
      "start_station_id":"478",
      "start_station_name":"Jernbanetorget",
      "start_station_description":"p\u00e5 Europar\u00e5dets plass",
      "start_station_latitude":59.911901,
      "start_station_longitude":10.749929,
      "end_station_id":"551",
      "end_station_name":"Olaf Ryes plass",
      "end_station_description":"ved Sofienberggata",
      "end_station_latitude":59.922425,
      "end_station_longitude":10.758182
   },
   {
      "started_at":"2019-08-01 03:00:26.630000+00:00",
      "ended_at":"2019-08-01 03:06:34.583000+00:00",
      "duration":367,
      "start_station_id":"440",
      "start_station_name":"Lakkegata",
      "start_station_description":"ved Sundtkvartalet",
      "start_station_latitude":59.9172088,
      "start_station_longitude":10.7622135,
      "end_station_id":"495",
      "end_station_name":"Vaterlandsparken",
      "end_station_description":"langs Brugata",
      "end_station_latitude":59.913532,
      "end_station_longitude":10.757334
   },
   {
      "started_at":"2019-08-01 03:00:41.406000+00:00",
      "ended_at":"2019-08-01 03:07:36.813000+00:00",
      "duration":415,
      "start_station_id":"787",
      "start_station_name":"Kirkegata 15",
      "start_station_description":"Kirkegata 15",
      "start_station_latitude":59.91015615055511,
      "start_station_longitude":10.743456971511705,
      "end_station_id":"460",
      "end_station_name":"Botanisk Hage s\u00f8r",
      "end_station_description":"langs Jens Bjelkes gate",
      "end_station_latitude":59.9152819,
      "end_station_longitude":10.7696199
   },
   {
      "started_at":"2019-08-01 03:01:52.262000+00:00",
      "ended_at":"2019-08-01 03:06:02.427000+00:00",
      "duration":250,
      "start_station_id":"554",
      "start_station_name":"T\u00e5sen Senter",
      "start_station_description":"ved Rolf Wickstr\u00f8ms vei",
      "start_station_latitude":59.952659,
      "start_station_longitude":10.751165,
      "end_station_id":"517",
      "end_station_name":"T\u00e5senl\u00f8kka",
      "end_station_description":"langs Uelands gate",
      "end_station_latitude":59.9433939,
      "end_station_longitude":10.7482848
   },
   {
      "started_at":"2019-08-01 03:02:42.657000+00:00",
      "ended_at":"2019-08-01 03:10:48.915000+00:00",
      "duration":486,
      "start_station_id":"413",
      "start_station_name":"Majorstuen",
      "start_station_description":"utenfor banken i Majorstukrysset",
      "start_station_latitude":59.929045,
      "start_station_longitude":10.716926,
      "end_station_id":"545",
      "end_station_name":"Arkaden S\u00f8r",
      "end_station_description":"ved Dronningens gate",
      "end_station_latitude":59.9119691,
      "end_station_longitude":10.7478583
   },
   {
      "started_at":"2019-08-01 03:03:20.657000+00:00",
      "ended_at":"2019-08-01 03:05:54.533000+00:00",
      "duration":153,
      "start_station_id":"393",
      "start_station_name":"Hans Nielsen Hauges plass",
      "start_station_description":"Mellom \u00c5sengata og Nordkappgata",
      "start_station_latitude":59.939244,
      "start_station_longitude":10.774319,
      "end_station_id":"614",
      "end_station_name":"Sinsen T-bane",
      "end_station_description":"ved Hans Nielsen Hauges gate",
      "end_station_latitude":59.938808,
      "end_station_longitude":10.780445
   },
   {
      "started_at":"2019-08-01 03:06:24.062000+00:00",
      "ended_at":"2019-08-01 03:11:58.557000+00:00",
      "duration":334,
      "start_station_id":"517",
      "start_station_name":"T\u00e5senl\u00f8kka",
      "start_station_description":"langs Uelands gate",
      "start_station_latitude":59.9433939,
      "start_station_longitude":10.7482848,
      "end_station_id":"416",
      "end_station_name":"Tannlegeh\u00f8yskolen",
      "end_station_description":"i Geitmyrsveien",
      "end_station_latitude":59.932383,
      "end_station_longitude":10.741475
   },
   {
      "started_at":"2019-08-01 03:07:00.872000+00:00",
      "ended_at":"2019-08-01 03:10:30.693000+00:00",
      "duration":209,
      "start_station_id":"521",
      "start_station_name":"Jess Carlsens gate",
      "start_station_description":"Ved Hausmanns gate",
      "start_station_latitude":59.9186359,
      "start_station_longitude":10.7523939,
      "end_station_id":"478",
      "end_station_name":"Jernbanetorget",
      "end_station_description":"p\u00e5 Europar\u00e5dets plass",
      "end_station_latitude":59.911901,
      "end_station_longitude":10.749929
   },
   {
      "started_at":"2019-08-01 03:08:10.809000+00:00",
      "ended_at":"2019-08-01 03:17:08.646000+00:00",
      "duration":537,
      "start_station_id":"513",
      "start_station_name":"B\u00f8kkerveien",
      "start_station_description":"p\u00e5 HasleLinje",
      "start_station_latitude":59.9273747,
      "start_station_longitude":10.7960147,
      "end_station_id":"734",
      "end_station_name":"Nylandsveien",
      "end_station_description":"mellom Norbygata og Urtegata",
      "end_station_latitude":59.9156603,
      "end_station_longitude":10.7622812
   },
   {
      "started_at":"2019-08-01 03:08:20.371000+00:00",
      "ended_at":"2019-08-01 03:11:53.824000+00:00",
      "duration":213,
      "start_station_id":"426",
      "start_station_name":"Gimle Kino",
      "start_station_description":"nedenfor Frogner Kirke",
      "start_station_latitude":59.917202,
      "start_station_longitude":10.708339,
      "end_station_id":"404",
      "end_station_name":"Oslo Handelsgymnasium",
      "end_station_description":"ved Solligata",
      "end_station_latitude":59.914306,
      "end_station_longitude":10.720202
   },
   {
      "started_at":"2019-08-01 03:11:24.437000+00:00",
      "ended_at":"2019-08-01 03:18:11.454000+00:00",
      "duration":407,
      "start_station_id":"734",
      "start_station_name":"Nylandsveien",
      "start_station_description":"mellom Norbygata og Urtegata",
      "start_station_latitude":59.9156603,
      "start_station_longitude":10.7622812,
      "end_station_id":"611",
      "end_station_name":"Bankplassen",
      "end_station_description":"ved Kirkegata",
      "end_station_latitude":59.908454,
      "end_station_longitude":10.741869
   },
   {
      "started_at":"2019-08-01 03:12:16.628000+00:00",
      "ended_at":"2019-08-01 03:20:30.016000+00:00",
      "duration":493,
      "start_station_id":"416",
      "start_station_name":"Tannlegeh\u00f8yskolen",
      "start_station_description":"i Geitmyrsveien",
      "start_station_latitude":59.932383,
      "start_station_longitude":10.741475,
      "end_station_id":"564",
      "end_station_name":"Oscars gate",
      "end_station_description":"ved Hegdehaugsveien",
      "end_station_latitude":59.9224222,
      "end_station_longitude":10.7272388
   },
   {
      "started_at":"2019-08-01 03:12:54.094000+00:00",
      "ended_at":"2019-08-01 03:35:21.405000+00:00",
      "duration":1347,
      "start_station_id":"558",
      "start_station_name":"Dokkveien",
      "start_station_description":"ved St\u00f8perigata",
      "start_station_latitude":59.910974,
      "start_station_longitude":10.7277001,
      "end_station_id":"488",
      "end_station_name":"Torshovparken vest",
      "end_station_description":"langs Per Kvibergs gate",
      "end_station_latitude":59.93507,
      "end_station_longitude":10.76915
   },
   {
      "started_at":"2019-08-01 03:14:01.959000+00:00",
      "ended_at":"2019-08-01 03:16:49.956000+00:00",
      "duration":167,
      "start_station_id":"561",
      "start_station_name":"Kirkeveien",
      "start_station_description":"nord for G\u00f8rbitz' gate",
      "start_station_latitude":59.9335582,
      "start_station_longitude":10.7264261,
      "end_station_id":"413",
      "end_station_name":"Majorstuen",
      "end_station_description":"utenfor banken i Majorstukrysset",
      "end_station_latitude":59.929045,
      "end_station_longitude":10.716926
   },
   {
      "started_at":"2019-08-01 03:16:26.551000+00:00",
      "ended_at":"2019-08-01 03:27:47.766000+00:00",
      "duration":681,
      "start_station_id":"473",
      "start_station_name":"Majorstuveien",
      "start_station_description":"i Maries gate",
      "start_station_latitude":59.926697,
      "start_station_longitude":10.716195,
      "end_station_id":"414",
      "end_station_name":"Kontraskj\u00e6ret",
      "end_station_description":"ved skr\u00e5ning ned mot Pipervika",
      "end_station_latitude":59.910242,
      "end_station_longitude":10.73857
   },
   {
      "started_at":"2019-08-01 03:16:28.956000+00:00",
      "ended_at":"2019-08-01 03:34:24.655000+00:00",
      "duration":1075,
      "start_station_id":"380",
      "start_station_name":"Bentsebrugata",
      "start_station_description":"rett over busstoppet",
      "start_station_latitude":59.93923,
      "start_station_longitude":10.75917,
      "end_station_id":"429",
      "end_station_name":"Thune",
      "end_station_description":"ved bomringen",
      "end_station_latitude":59.92208,
      "end_station_longitude":10.68588
   },
   {
      "started_at":"2019-08-01 03:18:03.486000+00:00",
      "ended_at":"2019-08-01 03:25:35.768000+00:00",
      "duration":452,
      "start_station_id":"444",
      "start_station_name":"AHO",
      "start_station_description":"langs Maridalsveien",
      "start_station_latitude":59.925265,
      "start_station_longitude":10.750462,
      "end_station_id":"607",
      "end_station_name":"Marcus Thranes gate",
      "end_station_description":"ved Akerselva",
      "end_station_latitude":59.9327471,
      "end_station_longitude":10.7585697
   },
   {
      "started_at":"2019-08-01 03:21:13.981000+00:00",
      "ended_at":"2019-08-01 03:24:36.422000+00:00",
      "duration":202,
      "start_station_id":"493",
      "start_station_name":"Sofienbergparken nordvest",
      "start_station_description":"ved Toftes gate",
      "start_station_latitude":59.9243639,
      "start_station_longitude":10.7615858,
      "end_station_id":"440",
      "end_station_name":"Lakkegata",
      "end_station_description":"ved Sundtkvartalet",
      "end_station_latitude":59.9172088,
      "end_station_longitude":10.7622135
   },
   {
      "started_at":"2019-08-01 03:21:25.051000+00:00",
      "ended_at":"2019-08-01 03:25:57.242000+00:00",
      "duration":272,
      "start_station_id":"518",
      "start_station_name":"Ullev\u00e5lsveien",
      "start_station_description":"Ved St. Hanshaugen park S\u00f8r",
      "start_station_latitude":59.9246852,
      "start_station_longitude":10.7395045,
      "end_station_id":"478",
      "end_station_name":"Jernbanetorget",
      "end_station_description":"p\u00e5 Europar\u00e5dets plass",
      "end_station_latitude":59.911901,
      "end_station_longitude":10.749929
   },
   {
      "started_at":"2019-08-01 03:22:02.688000+00:00",
      "ended_at":"2019-08-01 03:24:43.711000+00:00",
      "duration":161,
      "start_station_id":"435",
      "start_station_name":"Fram-g\u00e5rden",
      "start_station_description":"langs Bygd\u00f8y All\u00e9",
      "start_station_latitude":59.915424,
      "start_station_longitude":10.714577,
      "end_station_id":"511",
      "end_station_name":"Henrik Ibsens gate",
      "end_station_description":"ved Parkveien",
      "end_station_latitude":59.915088,
      "end_station_longitude":10.7222803
   },
   {
      "started_at":"2019-08-01 03:23:53.806000+00:00",
      "ended_at":"2019-08-01 03:33:17.069000+00:00",
      "duration":563,
      "start_station_id":"579",
      "start_station_name":"Bogstadveien",
      "start_station_description":"ved Sporveisgata",
      "start_station_latitude":59.924732,
      "start_station_longitude":10.724628,
      "end_station_id":"465",
      "end_station_name":"Bj\u00f8rvika",
      "end_station_description":"ved broen under Nylandsveien",
      "end_station_latitude":59.909006,
      "end_station_longitude":10.75618
   },
   {
      "started_at":"2019-08-01 03:24:04.040000+00:00",
      "ended_at":"2019-08-01 03:32:43.534000+00:00",
      "duration":519,
      "start_station_id":"607",
      "start_station_name":"Marcus Thranes gate",
      "start_station_description":"ved Akerselva",
      "start_station_latitude":59.9327471,
      "start_station_longitude":10.7585697,
      "end_station_id":"557",
      "end_station_name":"Akersgata",
      "end_station_description":"ved Grensen",
      "end_station_latitude":59.9141971,
      "end_station_longitude":10.7428828
   },
   {
      "started_at":"2019-08-01 03:24:21.525000+00:00",
      "ended_at":"2019-08-01 03:28:12.070000+00:00",
      "duration":230,
      "start_station_id":"398",
      "start_station_name":"Ringnes Park",
      "start_station_description":"ved Sannergata",
      "start_station_latitude":59.92843404417577,
      "start_station_longitude":10.75943014633117,
      "end_station_id":"385",
      "end_station_name":"S\u00f8ndre gate",
      "end_station_description":"ved Ankerbrua",
      "end_station_latitude":59.918632,
      "end_station_longitude":10.757867
   },
   {
      "started_at":"2019-08-01 03:24:31.541000+00:00",
      "ended_at":"2019-08-01 03:30:55.856000+00:00",
      "duration":384,
      "start_station_id":"578",
      "start_station_name":"Hallings gate",
      "start_station_description":"ved Dalsbergstien",
      "start_station_latitude":59.922777,
      "start_station_longitude":10.738655,
      "end_station_id":"443",
      "end_station_name":"Sj\u00f8siden \u00f8st",
      "end_station_description":"n\u00e6rmest trappen",
      "end_station_latitude":59.910178,
      "end_station_longitude":10.751824
   },
   {
      "started_at":"2019-08-01 03:25:00.792000+00:00",
      "ended_at":"2019-08-01 03:36:31.122000+00:00",
      "duration":690,
      "start_station_id":"403",
      "start_station_name":"Parkveien",
      "start_station_description":"utenfor Katedralen pub",
      "start_station_latitude":59.921768,
      "start_station_longitude":10.730476,
      "end_station_id":"456",
      "end_station_name":"Frognerstranda",
      "end_station_description":"ved Kongen Marina",
      "end_station_latitude":59.9103558,
      "end_station_longitude":10.7051061
   },
   {
      "started_at":"2019-08-01 03:25:02.647000+00:00",
      "ended_at":"2019-08-01 03:31:08.713000+00:00",
      "duration":366,
      "start_station_id":"400",
      "start_station_name":"HiOA",
      "start_station_description":"langs Pilestredet",
      "start_station_latitude":59.919927,
      "start_station_longitude":10.735428,
      "end_station_id":"448",
      "end_station_name":"Oslo Plaza",
      "end_station_description":"ved rundkj\u00f8ringen",
      "end_station_latitude":59.912185,
      "end_station_longitude":10.754506
   },
   {
      "started_at":"2019-08-01 03:27:04.524000+00:00",
      "ended_at":"2019-08-01 03:32:29.767000+00:00",
      "duration":325,
      "start_station_id":"440",
      "start_station_name":"Lakkegata",
      "start_station_description":"ved Sundtkvartalet",
      "start_station_latitude":59.9172088,
      "start_station_longitude":10.7622135,
      "end_station_id":"443",
      "end_station_name":"Sj\u00f8siden \u00f8st",
      "end_station_description":"n\u00e6rmest trappen",
      "end_station_latitude":59.910178,
      "end_station_longitude":10.751824
   },
   {
      "started_at":"2019-08-01 03:27:30.583000+00:00",
      "ended_at":"2019-08-01 03:31:28.078000+00:00",
      "duration":237,
      "start_station_id":"600",
      "start_station_name":"Dyvekes bru",
      "start_station_description":"ved skatepark",
      "start_station_latitude":59.905323,
      "start_station_longitude":10.7689579,
      "end_station_id":"465",
      "end_station_name":"Bj\u00f8rvika",
      "end_station_description":"ved broen under Nylandsveien",
      "end_station_latitude":59.909006,
      "end_station_longitude":10.75618
   },
   {
      "started_at":"2019-08-01 03:28:25.843000+00:00",
      "ended_at":"2019-08-01 03:31:20.601000+00:00",
      "duration":174,
      "start_station_id":"385",
      "start_station_name":"S\u00f8ndre gate",
      "start_station_description":"ved Ankerbrua",
      "start_station_latitude":59.918632,
      "start_station_longitude":10.757867,
      "end_station_id":"478",
      "end_station_name":"Jernbanetorget",
      "end_station_description":"p\u00e5 Europar\u00e5dets plass",
      "end_station_latitude":59.911901,
      "end_station_longitude":10.749929
   },
   {
      "started_at":"2019-08-01 03:28:40.310000+00:00",
      "ended_at":"2019-08-01 03:33:41.710000+00:00",
      "duration":301,
      "start_station_id":"502",
      "start_station_name":"Ullev\u00e5l sykehus",
      "start_station_description":"i Kirkeveien",
      "start_station_latitude":59.9360307,
      "start_station_longitude":10.7364516,
      "end_station_id":"508",
      "end_station_name":"Majorstuen t-bane",
      "end_station_description":"ved veien ut mot S\u00f8rkedalsveien",
      "end_station_latitude":59.9297,
      "end_station_longitude":10.714813
   },
   {
      "started_at":"2019-08-01 03:30:40.374000+00:00",
      "ended_at":"2019-08-01 03:38:36.864000+00:00",
      "duration":476,
      "start_station_id":"398",
      "start_station_name":"Ringnes Park",
      "start_station_description":"ved Sannergata",
      "start_station_latitude":59.92843404417577,
      "start_station_longitude":10.75943014633117,
      "end_station_id":"523",
      "end_station_name":"T\u00f8yenbekken",
      "end_station_description":"\u00d8st for Gr\u00f8nlands Torg",
      "end_station_latitude":59.9115945,
      "end_station_longitude":10.7617736
   },
   {
      "started_at":"2019-08-01 03:33:54.961000+00:00",
      "ended_at":"2019-08-01 03:39:14.659000+00:00",
      "duration":319,
      "start_station_id":"423",
      "start_station_name":"Schous plass",
      "start_station_description":"n\u00e6rmest rundkj\u00f8ringen",
      "start_station_latitude":59.920335,
      "start_station_longitude":10.760804,
      "end_station_id":"527",
      "end_station_name":"Biskop Gunnerus' gate",
      "end_station_description":"ved Oslo City",
      "end_station_latitude":59.9123341,
      "end_station_longitude":10.752292
   },
   {
      "started_at":"2019-08-01 03:34:42.336000+00:00",
      "ended_at":"2019-08-01 03:36:38.529000+00:00",
      "duration":116,
      "start_station_id":"596",
      "start_station_name":"Idioten",
      "start_station_description":"ved Sofies gate",
      "start_station_latitude":59.9310814,
      "start_station_longitude":10.7360029,
      "end_station_id":"416",
      "end_station_name":"Tannlegeh\u00f8yskolen",
      "end_station_description":"i Geitmyrsveien",
      "end_station_latitude":59.932383,
      "end_station_longitude":10.741475
   },
   {
      "started_at":"2019-08-01 03:35:25.864000+00:00",
      "ended_at":"2019-08-01 03:40:05.499000+00:00",
      "duration":279,
      "start_station_id":"530",
      "start_station_name":"Holbergs Plass",
      "start_station_description":"ved Welhavens gate",
      "start_station_latitude":59.9193095,
      "start_station_longitude":10.7343051,
      "end_station_id":"526",
      "end_station_name":"Lille Grensen",
      "end_station_description":"Ved Akersgata",
      "end_station_latitude":59.9138973,
      "end_station_longitude":10.7423101
   },
   {
      "started_at":"2019-08-01 03:37:39.555000+00:00",
      "ended_at":"2019-08-01 03:38:52.454000+00:00",
      "duration":72,
      "start_station_id":"617",
      "start_station_name":"Bjerregaardsgate \u00d8st",
      "start_station_description":"ved Uelands gate",
      "start_station_latitude":59.9272161,
      "start_station_longitude":10.7497787,
      "end_station_id":"617",
      "end_station_name":"Bjerregaardsgate \u00d8st",
      "end_station_description":"ved Uelands gate",
      "end_station_latitude":59.9272161,
      "end_station_longitude":10.7497787
   }
 ]
