[{"started_at": "2019-06-01 07:00:43.070000+00:00", "ended_at": "2019-06-01 07:03:51.834000+00:00", "duration": 188, "start_station_id": "403", "start_station_name": "Parkveien", "start_station_description": "utenfor Katedralen pub", "start_station_latitude": 59.921768, "start_station_longitude": 10.730476, "end_station_id": "550", "end_station_name": "Thereses gate", "end_station_description": "ved Bislett kollektivholdeplass", "end_station_latitude": 59.9261462, "end_station_longitude": 10.7310355}, {"started_at": "2019-06-01 07:02:03.924000+00:00", "ended_at": "2019-06-01 07:13:20.784000+00:00", "duration": 676, "start_station_id": "424", "start_station_name": "Birkelunden", "start_station_description": "langs Seilduksgata", "start_station_latitude": 59.9256113, "start_station_longitude": 10.760926, "end_station_id": "599", "end_station_name": "Pal\u00e9haven", "end_station_description": "langs Strandgata", "end_station_latitude": 59.910331, "end_station_longitude": 10.75011}, {"started_at": "2019-06-01 07:03:28.384000+00:00", "ended_at": "2019-06-01 07:10:40.271000+00:00", "duration": 431, "start_station_id": "550", "start_station_name": "Thereses gate", "start_station_description": "ved Bislett kollektivholdeplass", "start_station_latitude": 59.9261462, "start_station_longitude": 10.7310355, "end_station_id": "383", "end_station_name": "Arkitekt Rivertz Plass", "end_station_description": "i Uelands gate", "end_station_latitude": 59.934936, "end_station_longitude": 10.749466}, {"started_at": "2019-06-01 07:04:59.384000+00:00", "ended_at": "2019-06-01 07:13:11.378000+00:00", "duration": 491, "start_station_id": "450", "start_station_name": "Elisenberg", "start_station_description": "ved holdeplassen", "start_station_latitude": 59.919524, "start_station_longitude": 10.70884, "end_station_id": "413", "end_station_name": "Majorstuen", "end_station_description": "utenfor banken i Majorstukrysset", "end_station_latitude": 59.929045, "end_station_longitude": 10.716926}, {"started_at": "2019-06-01 07:05:01.803000+00:00", "ended_at": "2019-06-01 07:12:35.642000+00:00", "duration": 453, "start_station_id": "739", "start_station_name": "Hammersborg Torg", "start_station_description": "i M\u00f8llergata", "start_station_latitude": 59.916536, "start_station_longitude": 10.749162, "end_station_id": "558", "end_station_name": "Dokkveien", "end_station_description": "ved St\u00f8perigata", "end_station_latitude": 59.910974, "end_station_longitude": 10.7277001}, {"started_at": "2019-06-01 07:06:11.994000+00:00", "ended_at": "2019-06-01 07:16:14.725000+00:00", "duration": 602, "start_station_id": "583", "start_station_name": "Galgeberg", "start_station_description": "Ved St. Halvards gate", "start_station_latitude": 59.9071, "start_station_longitude": 10.77921, "end_station_id": "521", "end_station_name": "Jess Carlsens gate", "end_station_description": "Ved Hausmanns gate", "end_station_latitude": 59.9186359, "end_station_longitude": 10.7523939}, {"started_at": "2019-06-01 07:06:19.185000+00:00", "ended_at": "2019-06-01 07:25:27.904000+00:00", "duration": 1148, "start_station_id": "473", "start_station_name": "Majorstuveien", "start_station_description": "i Maries gate", "start_station_latitude": 59.926697, "start_station_longitude": 10.716195, "end_station_id": "739", "end_station_name": "Hammersborg Torg", "end_station_description": "i M\u00f8llergata", "end_station_latitude": 59.916536, "end_station_longitude": 10.749162}, {"started_at": "2019-06-01 07:06:20.547000+00:00", "ended_at": "2019-06-01 07:09:17.594000+00:00", "duration": 177, "start_station_id": "403", "start_station_name": "Parkveien", "start_station_description": "utenfor Katedralen pub", "start_station_latitude": 59.921768, "start_station_longitude": 10.730476, "end_station_id": "562", "end_station_name": "Slottsparken \u00d8st", "end_station_description": "mellom Wergelandsveien og Holbergs gate", "end_station_latitude": 59.917485, "end_station_longitude": 10.732128}, {"started_at": "2019-06-01 07:06:30.502000+00:00", "ended_at": "2019-06-01 07:11:41.449000+00:00", "duration": 310, "start_station_id": "503", "start_station_name": "Fagerheimgata", "start_station_description": "ved D\u00e6lenenga Busstopp", "start_station_latitude": 59.9274634, "start_station_longitude": 10.7657433, "end_station_id": "401", "end_station_name": "Schous plass", "end_station_description": "n\u00e6rmest Thorvald Meyers gate", "end_station_latitude": 59.920259, "end_station_longitude": 10.760629}, {"started_at": "2019-06-01 07:07:04.408000+00:00", "ended_at": "2019-06-01 07:19:35.534000+00:00", "duration": 751, "start_station_id": "382", "start_station_name": "Stensgata", "start_station_description": "ved trikkestoppet", "start_station_latitude": 59.929634, "start_station_longitude": 10.732839, "end_station_id": "567", "end_station_name": "Forskningsveien", "end_station_description": "ved Nordre Aker", "end_station_latitude": 59.9454775, "end_station_longitude": 10.7138465}, {"started_at": "2019-06-01 07:07:07.272000+00:00", "ended_at": "2019-06-01 07:11:08.249000+00:00", "duration": 240, "start_station_id": "380", "start_station_name": "Bentsebrugata", "start_station_description": "rett over busstoppet", "start_station_latitude": 59.93923, "start_station_longitude": 10.75917, "end_station_id": "606", "end_station_name": "Stockfleths gate", "end_station_description": "ved Griffenfeldts gate", "end_station_latitude": 59.9339754, "end_station_longitude": 10.7521029}, {"started_at": "2019-06-01 07:07:09.203000+00:00", "ended_at": "2019-06-01 07:13:49.397000+00:00", "duration": 400, "start_station_id": "431", "start_station_name": "Chr. Michelsens Gate", "start_station_description": "ved Fjellgata", "start_station_latitude": 59.927292, "start_station_longitude": 10.773185, "end_station_id": "499", "end_station_name": "Bjerregaards gate", "end_station_description": "ovenfor Fredrikke Qvams gate", "end_station_latitude": 59.925488, "end_station_longitude": 10.746058}, {"started_at": "2019-06-01 07:07:29.216000+00:00", "ended_at": "2019-06-01 07:18:50.017000+00:00", "duration": 680, "start_station_id": "470", "start_station_name": "St. Hanshaugen park nord", "start_station_description": "krysset Colletts gt / Geitmyrsveien", "start_station_latitude": 59.929771, "start_station_longitude": 10.743524, "end_station_id": "615", "end_station_name": "Munkedamsveien", "end_station_description": "Vest for Haakon VIIs gate", "end_station_latitude": 59.9135227, "end_station_longitude": 10.7301061}, {"started_at": "2019-06-01 07:07:30.923000+00:00", "ended_at": "2019-06-01 07:19:18.096000+00:00", "duration": 707, "start_station_id": "470", "start_station_name": "St. Hanshaugen park nord", "start_station_description": "krysset Colletts gt / Geitmyrsveien", "start_station_latitude": 59.929771, "start_station_longitude": 10.743524, "end_station_id": "615", "end_station_name": "Munkedamsveien", "end_station_description": "Vest for Haakon VIIs gate", "end_station_latitude": 59.9135227, "end_station_longitude": 10.7301061}, {"started_at": "2019-06-01 07:07:35.685000+00:00", "ended_at": "2019-06-01 07:15:37.380000+00:00", "duration": 481, "start_station_id": "479", "start_station_name": "Tjuvholmen", "start_station_description": "nedenfor bussholdeplassen", "start_station_latitude": 59.909467, "start_station_longitude": 10.722509, "end_station_id": "426", "end_station_name": "Gimle Kino", "end_station_description": "nedenfor Frogner Kirke", "end_station_latitude": 59.917202, "end_station_longitude": 10.708339}, {"started_at": "2019-06-01 07:08:24.104000+00:00", "ended_at": "2019-06-01 07:12:51.243000+00:00", "duration": 267, "start_station_id": "473", "start_station_name": "Majorstuveien", "start_station_description": "i Maries gate", "start_station_latitude": 59.926697, "start_station_longitude": 10.716195, "end_station_id": "450", "end_station_name": "Elisenberg", "end_station_description": "ved holdeplassen", "end_station_latitude": 59.919524, "end_station_longitude": 10.70884}, {"started_at": "2019-06-01 07:08:40.158000+00:00", "ended_at": "2019-06-01 07:15:48.177000+00:00", "duration": 428, "start_station_id": "479", "start_station_name": "Tjuvholmen", "start_station_description": "nedenfor bussholdeplassen", "start_station_latitude": 59.909467, "start_station_longitude": 10.722509, "end_station_id": "611", "end_station_name": "Bankplassen", "end_station_description": "ved Kirkegata", "end_station_latitude": 59.908454, "end_station_longitude": 10.741869}, {"started_at": "2019-06-01 07:09:05.203000+00:00", "ended_at": "2019-06-01 07:18:51.732000+00:00", "duration": 586, "start_station_id": "432", "start_station_name": "St. Hanshaugen park s\u00f8r", "start_station_description": "ved dammen", "start_station_latitude": 59.924821, "start_station_longitude": 10.739909, "end_station_id": "413", "end_station_name": "Majorstuen", "end_station_description": "utenfor banken i Majorstukrysset", "end_station_latitude": 59.929045, "end_station_longitude": 10.716926}, {"started_at": "2019-06-01 07:09:41.432000+00:00", "ended_at": "2019-06-01 07:16:08.901000+00:00", "duration": 387, "start_station_id": "421", "start_station_name": "Alexander Kiellands Plass", "start_station_description": "ved Maridalsveien", "start_station_latitude": 59.928058, "start_station_longitude": 10.751397, "end_station_id": "419", "end_station_name": "Storgata", "end_station_description": "i starten av Youngs gate", "end_station_latitude": 59.9141252, "end_station_longitude": 10.751824}, {"started_at": "2019-06-01 07:10:46.455000+00:00", "ended_at": "2019-06-01 07:37:03.798000+00:00", "duration": 1577, "start_station_id": "600", "start_station_name": "Dyvekes bru", "start_station_description": "ved skatepark", "start_station_latitude": 59.905323, "start_station_longitude": 10.7689579, "end_station_id": "744", "end_station_name": "Hall\u00e9nparken", "end_station_description": "ved Vogts gate", "end_station_latitude": 59.9315302, "end_station_longitude": 10.762169}, {"started_at": "2019-06-01 07:11:50.825000+00:00", "ended_at": "2019-06-01 07:14:32.114000+00:00", "duration": 161, "start_station_id": "578", "start_station_name": "Hallings gate", "start_station_description": "ved Dalsbergstien", "start_station_latitude": 59.922777, "start_station_longitude": 10.738655, "end_station_id": "499", "end_station_name": "Bjerregaards gate", "end_station_description": "ovenfor Fredrikke Qvams gate", "end_station_latitude": 59.925488, "end_station_longitude": 10.746058}, {"started_at": "2019-06-01 07:11:53.849000+00:00", "ended_at": "2019-06-01 07:15:24.571000+00:00", "duration": 210, "start_station_id": "735", "start_station_name": "Oslo Hospital", "start_station_description": "ved trikkestoppet", "start_station_latitude": 59.9031036, "start_station_longitude": 10.7673282, "end_station_id": "737", "end_station_name": "Munkegata trikkestopp", "end_station_description": "langs Oslo gate", "end_station_latitude": 59.908255, "end_station_longitude": 10.7678}, {"started_at": "2019-06-01 07:11:55.488000+00:00", "ended_at": "2019-06-01 08:01:50.776000+00:00", "duration": 2995, "start_station_id": "403", "start_station_name": "Parkveien", "start_station_description": "utenfor Katedralen pub", "start_station_latitude": 59.921768, "start_station_longitude": 10.730476, "end_station_id": "519", "end_station_name": "Thomas Heftyes plass", "end_station_description": "ved Bygd\u00f8y all\u00e9", "end_station_latitude": 59.9185405, "end_station_longitude": 10.7039116}, {"started_at": "2019-06-01 07:12:06.307000+00:00", "ended_at": "2019-06-01 07:20:11.938000+00:00", "duration": 485, "start_station_id": "419", "start_station_name": "Storgata", "start_station_description": "i starten av Youngs gate", "start_station_latitude": 59.9141252, "start_station_longitude": 10.751824, "end_station_id": "421", "end_station_name": "Alexander Kiellands Plass", "end_station_description": "ved Maridalsveien", "end_station_latitude": 59.928058, "end_station_longitude": 10.751397}, {"started_at": "2019-06-01 07:12:09.071000+00:00", "ended_at": "2019-06-01 07:25:46.311000+00:00", "duration": 817, "start_station_id": "454", "start_station_name": "Furulund", "start_station_description": "langs V\u00e6ker\u00f8veien", "start_station_latitude": 59.9198098, "start_station_longitude": 10.651118, "end_station_id": "558", "end_station_name": "Dokkveien", "end_station_description": "ved St\u00f8perigata", "end_station_latitude": 59.910974, "end_station_longitude": 10.7277001}, {"started_at": "2019-06-01 07:12:40.837000+00:00", "ended_at": "2019-06-01 08:12:28.346000+00:00", "duration": 3587, "start_station_id": "519", "start_station_name": "Thomas Heftyes plass", "start_station_description": "ved Bygd\u00f8y all\u00e9", "start_station_latitude": 59.9185405, "start_station_longitude": 10.7039116, "end_station_id": "494", "end_station_name": "R\u00e5dhusbrygge 4", "end_station_description": "ved Nesoddb\u00e5ten", "end_station_latitude": 59.9108469, "end_station_longitude": 10.7303766}, {"started_at": "2019-06-01 07:12:53.142000+00:00", "ended_at": "2019-06-01 07:15:02.839000+00:00", "duration": 129, "start_station_id": "551", "start_station_name": "Olaf Ryes plass", "start_station_description": "ved Sofienberggata", "start_station_latitude": 59.922425, "start_station_longitude": 10.758182, "end_station_id": "412", "end_station_name": "Jakob kirke", "end_station_description": "langs Torggata", "end_station_latitude": 59.917866, "end_station_longitude": 10.754898}, {"started_at": "2019-06-01 07:14:08.330000+00:00", "ended_at": "2019-06-01 07:26:55.866000+00:00", "duration": 767, "start_station_id": "415", "start_station_name": "Sinsenveien", "start_station_description": "ved Kongehellegata", "start_station_latitude": 59.929542, "start_station_longitude": 10.781053, "end_station_id": "502", "end_station_name": "Ullev\u00e5l sykehus", "end_station_description": "i Kirkeveien", "end_station_latitude": 59.9360307, "end_station_longitude": 10.7364516}, {"started_at": "2019-06-01 07:14:12.234000+00:00", "ended_at": "2019-06-01 07:23:13.242000+00:00", "duration": 541, "start_station_id": "408", "start_station_name": "T\u00f8yen skole", "start_station_description": "forsiden av skolebygget", "start_station_latitude": 59.914943, "start_station_longitude": 10.773977, "end_station_id": "585", "end_station_name": "Nordre gate", "end_station_description": "\u00d8st for Gr\u00fcnerbrua", "end_station_latitude": 59.9212171, "end_station_longitude": 10.7547918}, {"started_at": "2019-06-01 07:14:14.422000+00:00", "ended_at": "2019-06-01 07:31:00.622000+00:00", "duration": 1006, "start_station_id": "410", "start_station_name": "Landstads gate", "start_station_description": "ved Uelands gate", "start_station_latitude": 59.929005, "start_station_longitude": 10.7496755, "end_station_id": "575", "end_station_name": "Sognsveien", "end_station_description": "ved Ullev\u00e5l Stadion", "end_station_latitude": 59.9474863, "end_station_longitude": 10.7324195}, {"started_at": "2019-06-01 07:14:17.907000+00:00", "ended_at": "2019-06-01 07:22:51.595000+00:00", "duration": 513, "start_station_id": "400", "start_station_name": "HiOA", "start_station_description": "langs Pilestredet", "start_station_latitude": 59.919927, "start_station_longitude": 10.735428, "end_station_id": "388", "end_station_name": "Skovveien", "end_station_description": "ved Frognerveien", "end_station_latitude": 59.9163309, "end_station_longitude": 10.716349}, {"started_at": "2019-06-01 07:14:31.371000+00:00", "ended_at": "2019-06-01 07:18:04.813000+00:00", "duration": 213, "start_station_id": "566", "start_station_name": "Hoff terrasse holdeplass", "start_station_description": "ved Hoffsveien", "start_station_latitude": 59.9272941, "start_station_longitude": 10.6755714, "end_station_id": "572", "end_station_name": "Sk\u00f8yen", "end_station_description": "under broen", "end_station_latitude": 59.922247, "end_station_longitude": 10.679738}, {"started_at": "2019-06-01 07:15:09.962000+00:00", "ended_at": "2019-06-01 07:33:04.689000+00:00", "duration": 1074, "start_station_id": "597", "start_station_name": "Fredensborg", "start_station_description": "ved rundkj\u00f8ringen", "start_station_latitude": 59.920995, "start_station_longitude": 10.750358, "end_station_id": "479", "end_station_name": "Tjuvholmen", "end_station_description": "nedenfor bussholdeplassen", "end_station_latitude": 59.909467, "end_station_longitude": 10.722509}, {"started_at": "2019-06-01 07:15:15.539000+00:00", "ended_at": "2019-06-01 07:29:00.637000+00:00", "duration": 825, "start_station_id": "748", "start_station_name": "Hydroparken", "start_station_description": "langs Drammensveien", "start_station_latitude": 59.914145, "start_station_longitude": 10.715505, "end_station_id": "410", "end_station_name": "Landstads gate", "end_station_description": "ved Uelands gate", "end_station_latitude": 59.929005, "end_station_longitude": 10.7496755}, {"started_at": "2019-06-01 07:15:16.333000+00:00", "ended_at": "2019-06-01 07:24:16.035000+00:00", "duration": 539, "start_station_id": "412", "start_station_name": "Jakob kirke", "start_station_description": "langs Torggata", "start_station_latitude": 59.917866, "start_station_longitude": 10.754898, "end_station_id": "480", "end_station_name": "Helga Helgesens plass", "end_station_description": "langs Gr\u00f8nlandsleiret", "end_station_latitude": 59.9121109, "end_station_longitude": 10.7661939}, {"started_at": "2019-06-01 07:15:48.730000+00:00", "ended_at": "2019-06-01 07:24:20.072000+00:00", "duration": 511, "start_station_id": "519", "start_station_name": "Thomas Heftyes plass", "start_station_description": "ved Bygd\u00f8y all\u00e9", "start_station_latitude": 59.9185405, "start_station_longitude": 10.7039116, "end_station_id": "535", "end_station_name": "Uranienborgveien", "end_station_description": "Vest for Slottsparken", "end_station_latitude": 59.9200421, "end_station_longitude": 10.726634}, {"started_at": "2019-06-01 07:16:02.905000+00:00", "ended_at": "2019-06-01 07:22:59.107000+00:00", "duration": 416, "start_station_id": "426", "start_station_name": "Gimle Kino", "start_station_description": "nedenfor Frogner Kirke", "start_station_latitude": 59.917202, "start_station_longitude": 10.708339, "end_station_id": "572", "end_station_name": "Sk\u00f8yen", "end_station_description": "under broen", "end_station_latitude": 59.922247, "end_station_longitude": 10.679738}, {"started_at": "2019-06-01 07:16:33.493000+00:00", "ended_at": "2019-06-01 07:23:05.477000+00:00", "duration": 391, "start_station_id": "548", "start_station_name": "Colbj\u00f8rnsens gate", "start_station_description": "ved Skovveien", "start_station_latitude": 59.917293, "start_station_longitude": 10.716796, "end_station_id": "414", "end_station_name": "Kontraskj\u00e6ret", "end_station_description": "ved skr\u00e5ning ned mot Pipervika", "end_station_latitude": 59.910242, "end_station_longitude": 10.73857}, {"started_at": "2019-06-01 07:17:16.018000+00:00", "ended_at": "2019-06-01 07:23:17.720000+00:00", "duration": 361, "start_station_id": "485", "start_station_name": "Sommerfrydhagen", "start_station_description": "i Jens Bjelkes gate", "start_station_latitude": 59.911453, "start_station_longitude": 10.776072, "end_station_id": "574", "end_station_name": "Annette Thommessens Plass", "end_station_description": "langs Schweigaards gate", "end_station_latitude": 59.9107393, "end_station_longitude": 10.7609998}, {"started_at": "2019-06-01 07:17:47.383000+00:00", "ended_at": "2019-06-01 07:27:07.635000+00:00", "duration": 560, "start_station_id": "516", "start_station_name": "Finnmarksgata", "start_station_description": "ved Monrads gate", "start_station_latitude": 59.922839, "start_station_longitude": 10.775658, "end_station_id": "465", "end_station_name": "Bj\u00f8rvika", "end_station_description": "ved broen under Nylandsveien", "end_station_latitude": 59.909006, "end_station_longitude": 10.75618}, {"started_at": "2019-06-01 07:17:47.623000+00:00", "ended_at": "2019-06-01 07:44:04.114000+00:00", "duration": 1576, "start_station_id": "488", "start_station_name": "Torshovparken vest", "start_station_description": "langs Per Kvibergs gate", "start_station_latitude": 59.93507, "start_station_longitude": 10.76915, "end_station_id": "479", "end_station_name": "Tjuvholmen", "end_station_description": "nedenfor bussholdeplassen", "end_station_latitude": 59.909467, "end_station_longitude": 10.722509}, {"started_at": "2019-06-01 07:17:53.251000+00:00", "ended_at": "2019-06-01 07:23:00.038000+00:00", "duration": 306, "start_station_id": "384", "start_station_name": "V\u00e5r Frelsers gravlund s\u00f8r", "start_station_description": "langs Ullev\u00e5lsveien", "start_station_latitude": 59.919463, "start_station_longitude": 10.743829, "end_station_id": "599", "end_station_name": "Pal\u00e9haven", "end_station_description": "langs Strandgata", "end_station_latitude": 59.910331, "end_station_longitude": 10.75011}, {"started_at": "2019-06-01 07:17:53.805000+00:00", "ended_at": "2019-06-01 07:19:58.581000+00:00", "duration": 124, "start_station_id": "384", "start_station_name": "V\u00e5r Frelsers gravlund s\u00f8r", "start_station_description": "langs Ullev\u00e5lsveien", "start_station_latitude": 59.919463, "start_station_longitude": 10.743829, "end_station_id": "557", "end_station_name": "Akersgata", "end_station_description": "ved Grensen", "end_station_latitude": 59.9141971, "end_station_longitude": 10.7428828}, {"started_at": "2019-06-01 07:18:40.146000+00:00", "ended_at": "2019-06-01 07:24:57.808000+00:00", "duration": 377, "start_station_id": "558", "start_station_name": "Dokkveien", "start_station_description": "ved St\u00f8perigata", "start_station_latitude": 59.910974, "start_station_longitude": 10.7277001, "end_station_id": "528", "end_station_name": "Nedre Slottsgate", "end_station_description": "ved Grensen", "end_station_latitude": 59.913245, "end_station_longitude": 10.743669}, {"started_at": "2019-06-01 07:19:35.543000+00:00", "ended_at": "2019-06-01 07:28:52.794000+00:00", "duration": 557, "start_station_id": "598", "start_station_name": "Sofienbergparken nord", "start_station_description": "langs Helgesens gate", "start_station_latitude": 59.923229, "start_station_longitude": 10.766171, "end_station_id": "599", "end_station_name": "Pal\u00e9haven", "end_station_description": "langs Strandgata", "end_station_latitude": 59.910331, "end_station_longitude": 10.75011}, {"started_at": "2019-06-01 07:19:54.781000+00:00", "ended_at": "2019-06-01 08:23:59.523000+00:00", "duration": 3844, "start_station_id": "456", "start_station_name": "Frognerstranda", "start_station_description": "ved Kongen Marina", "start_station_latitude": 59.9103558, "start_station_longitude": 10.7051061, "end_station_id": "583", "end_station_name": "Galgeberg", "end_station_description": "Ved St. Halvards gate", "end_station_latitude": 59.9071, "end_station_longitude": 10.77921}, {"started_at": "2019-06-01 07:20:43.295000+00:00", "ended_at": "2019-06-01 07:38:32.959000+00:00", "duration": 1069, "start_station_id": "592", "start_station_name": "Badebakken", "start_station_description": "ved Maridalsveien", "start_station_latitude": 59.9455883, "start_station_longitude": 10.7604191, "end_station_id": "495", "end_station_name": "Vaterlandsparken", "end_station_description": "langs Brugata", "end_station_latitude": 59.913532, "end_station_longitude": 10.757334}, {"started_at": "2019-06-01 07:21:01.251000+00:00", "ended_at": "2019-06-01 07:29:53.232000+00:00", "duration": 531, "start_station_id": "499", "start_station_name": "Bjerregaards gate", "start_station_description": "ovenfor Fredrikke Qvams gate", "start_station_latitude": 59.925488, "start_station_longitude": 10.746058, "end_station_id": "414", "end_station_name": "Kontraskj\u00e6ret", "end_station_description": "ved skr\u00e5ning ned mot Pipervika", "end_station_latitude": 59.910242, "end_station_longitude": 10.73857}, {"started_at": "2019-06-01 07:21:09.968000+00:00", "ended_at": "2019-06-01 08:20:24.858000+00:00", "duration": 3554, "start_station_id": "499", "start_station_name": "Bjerregaards gate", "start_station_description": "ovenfor Fredrikke Qvams gate", "start_station_latitude": 59.925488, "start_station_longitude": 10.746058, "end_station_id": "403", "end_station_name": "Parkveien", "end_station_description": "utenfor Katedralen pub", "end_station_latitude": 59.921768, "end_station_longitude": 10.730476}, {"started_at": "2019-06-01 07:21:24.966000+00:00", "ended_at": "2019-06-01 07:31:27.690000+00:00", "duration": 602, "start_station_id": "563", "start_station_name": "Huitfeldts gate", "start_station_description": "mellom Cort Adelers gate og Observatoriegata", "start_station_latitude": 59.9126844, "start_station_longitude": 10.7229003, "end_station_id": "465", "end_station_name": "Bj\u00f8rvika", "end_station_description": "ved broen under Nylandsveien", "end_station_latitude": 59.909006, "end_station_longitude": 10.75618}, {"started_at": "2019-06-01 07:21:34.914000+00:00", "ended_at": "2019-06-01 07:58:37.222000+00:00", "duration": 2222, "start_station_id": "421", "start_station_name": "Alexander Kiellands Plass", "start_station_description": "ved Maridalsveien", "start_station_latitude": 59.928058, "start_station_longitude": 10.751397, "end_station_id": "463", "end_station_name": "Schous plass trikkestopp", "end_station_description": "ved biblioteket", "end_station_latitude": 59.9207284, "end_station_longitude": 10.7594857}, {"started_at": "2019-06-01 07:21:48.816000+00:00", "ended_at": "2019-06-01 07:31:22.727000+00:00", "duration": 573, "start_station_id": "460", "start_station_name": "Botanisk Hage s\u00f8r", "start_station_description": "langs Jens Bjelkes gate", "start_station_latitude": 59.9152819, "start_station_longitude": 10.7696199, "end_station_id": "528", "end_station_name": "Nedre Slottsgate", "end_station_description": "ved Grensen", "end_station_latitude": 59.913245, "end_station_longitude": 10.743669}, {"started_at": "2019-06-01 07:21:51.817000+00:00", "ended_at": "2019-06-01 07:30:26.121000+00:00", "duration": 514, "start_station_id": "485", "start_station_name": "Sommerfrydhagen", "start_station_description": "i Jens Bjelkes gate", "start_station_latitude": 59.911453, "start_station_longitude": 10.776072, "end_station_id": "430", "end_station_name": "Spikersuppa Vest", "end_station_description": "mot Stortingsgata", "end_station_latitude": 59.9137965, "end_station_longitude": 10.7358023}, {"started_at": "2019-06-01 07:22:11.233000+00:00", "ended_at": "2019-06-01 07:37:54.444000+00:00", "duration": 943, "start_station_id": "399", "start_station_name": "Uelands gate", "start_station_description": "Ved Ulvetrappen (Ilatrappen)", "start_station_latitude": 59.929545, "start_station_longitude": 10.7489862, "end_station_id": "429", "end_station_name": "Thune", "end_station_description": "ved bomringen", "end_station_latitude": 59.92208, "end_station_longitude": 10.68588}, {"started_at": "2019-06-01 07:22:19.293000+00:00", "ended_at": "2019-06-01 07:26:55.403000+00:00", "duration": 276, "start_station_id": "413", "start_station_name": "Majorstuen", "start_station_description": "utenfor banken i Majorstukrysset", "start_station_latitude": 59.929045, "start_station_longitude": 10.716926, "end_station_id": "579", "end_station_name": "Bogstadveien", "end_station_description": "ved Sporveisgata", "end_station_latitude": 59.924732, "end_station_longitude": 10.724628}, {"started_at": "2019-06-01 07:22:19.853000+00:00", "ended_at": "2019-06-01 07:27:09.235000+00:00", "duration": 289, "start_station_id": "469", "start_station_name": "Studentparlamentet", "start_station_description": "ved Frydenlund holdeplass", "start_station_latitude": 59.920852, "start_station_longitude": 10.733357, "end_station_id": "390", "end_station_name": "Saga Kino", "end_station_description": "i Olav Vs gate", "end_station_latitude": 59.914002, "end_station_longitude": 10.732869}, {"started_at": "2019-06-01 07:22:49.053000+00:00", "ended_at": "2019-06-01 07:29:20.383000+00:00", "duration": 391, "start_station_id": "451", "start_station_name": "Suhms gate", "start_station_description": "mellom Schultz' gate og Industrigata", "start_station_latitude": 59.929419, "start_station_longitude": 10.726195, "end_station_id": "528", "end_station_name": "Nedre Slottsgate", "end_station_description": "ved Grensen", "end_station_latitude": 59.913245, "end_station_longitude": 10.743669}, {"started_at": "2019-06-01 07:23:05.183000+00:00", "ended_at": "2019-06-01 07:29:22.735000+00:00", "duration": 377, "start_station_id": "450", "start_station_name": "Elisenberg", "start_station_description": "ved holdeplassen", "start_station_latitude": 59.919524, "start_station_longitude": 10.70884, "end_station_id": "405", "end_station_name": "Frognerbadet", "end_station_description": "ved Middelthuns gate", "end_station_latitude": 59.92808, "end_station_longitude": 10.708767}, {"started_at": "2019-06-01 07:23:18.307000+00:00", "ended_at": "2019-06-01 07:27:57.092000+00:00", "duration": 278, "start_station_id": "455", "start_station_name": "Sofienbergparken s\u00f8r", "start_station_description": "langs Sofienberggata", "start_station_latitude": 59.922337, "start_station_longitude": 10.7617503, "end_station_id": "460", "end_station_name": "Botanisk Hage s\u00f8r", "end_station_description": "langs Jens Bjelkes gate", "end_station_latitude": 59.9152819, "end_station_longitude": 10.7696199}, {"started_at": "2019-06-01 07:24:22.642000+00:00", "ended_at": "2019-06-01 07:28:33.798000+00:00", "duration": 251, "start_station_id": "735", "start_station_name": "Oslo Hospital", "start_station_description": "ved trikkestoppet", "start_station_latitude": 59.9031036, "start_station_longitude": 10.7673282, "end_station_id": "465", "end_station_name": "Bj\u00f8rvika", "end_station_description": "ved broen under Nylandsveien", "end_station_latitude": 59.909006, "end_station_longitude": 10.75618}, {"started_at": "2019-06-01 07:24:25.345000+00:00", "ended_at": "2019-06-01 07:31:09.313000+00:00", "duration": 403, "start_station_id": "519", "start_station_name": "Thomas Heftyes plass", "start_station_description": "ved Bygd\u00f8y all\u00e9", "start_station_latitude": 59.9185405, "start_station_longitude": 10.7039116, "end_station_id": "430", "end_station_name": "Spikersuppa Vest", "end_station_description": "mot Stortingsgata", "end_station_latitude": 59.9137965, "end_station_longitude": 10.7358023}, {"started_at": "2019-06-01 07:25:04.138000+00:00", "ended_at": "2019-06-01 07:29:39.340000+00:00", "duration": 275, "start_station_id": "502", "start_station_name": "Ullev\u00e5l sykehus", "start_station_description": "i Kirkeveien", "start_station_latitude": 59.9360307, "start_station_longitude": 10.7364516, "end_station_id": "470", "end_station_name": "St. Hanshaugen park nord", "end_station_description": "krysset Colletts gt / Geitmyrsveien", "end_station_latitude": 59.929771, "end_station_longitude": 10.743524}, {"started_at": "2019-06-01 07:25:09.735000+00:00", "ended_at": "2019-06-01 07:46:36.341000+00:00", "duration": 1286, "start_station_id": "548", "start_station_name": "Colbj\u00f8rnsens gate", "start_station_description": "ved Skovveien", "start_station_latitude": 59.917293, "start_station_longitude": 10.716796, "end_station_id": "466", "end_station_name": "Ullev\u00e5lsall\u00e9en", "end_station_description": "langs Sognsveien", "end_station_latitude": 59.937913, "end_station_longitude": 10.73048}, {"started_at": "2019-06-01 07:25:18.017000+00:00", "ended_at": "2019-06-01 07:37:14.566000+00:00", "duration": 716, "start_station_id": "390", "start_station_name": "Saga Kino", "start_station_description": "i Olav Vs gate", "start_station_latitude": 59.914002, "start_station_longitude": 10.732869, "end_station_id": "456", "end_station_name": "Frognerstranda", "end_station_description": "ved Kongen Marina", "end_station_latitude": 59.9103558, "end_station_longitude": 10.7051061}, {"started_at": "2019-06-01 07:25:18.535000+00:00", "ended_at": "2019-06-01 07:32:30.103000+00:00", "duration": 431, "start_station_id": "556", "start_station_name": "Pilestredet", "start_station_description": "ved Sporveisgata", "start_station_latitude": 59.9262242, "start_station_longitude": 10.7296246, "end_station_id": "502", "end_station_name": "Ullev\u00e5l sykehus", "end_station_description": "i Kirkeveien", "end_station_latitude": 59.9360307, "end_station_longitude": 10.7364516}, {"started_at": "2019-06-01 07:25:36.259000+00:00", "ended_at": "2019-06-01 07:29:12.700000+00:00", "duration": 216, "start_station_id": "403", "start_station_name": "Parkveien", "start_station_description": "utenfor Katedralen pub", "start_station_latitude": 59.921768, "start_station_longitude": 10.730476, "end_station_id": "430", "end_station_name": "Spikersuppa Vest", "end_station_description": "mot Stortingsgata", "end_station_latitude": 59.9137965, "end_station_longitude": 10.7358023}, {"started_at": "2019-06-01 07:25:47.244000+00:00", "ended_at": "2019-06-01 07:32:49.382000+00:00", "duration": 422, "start_station_id": "457", "start_station_name": "Trondheimsveien", "start_station_description": "Ved trikkestoppet", "start_station_latitude": 59.9230577, "start_station_longitude": 10.7717192, "end_station_id": "744", "end_station_name": "Hall\u00e9nparken", "end_station_description": "ved Vogts gate", "end_station_latitude": 59.9315302, "end_station_longitude": 10.762169}, {"started_at": "2019-06-01 07:26:11.381000+00:00", "ended_at": "2019-06-01 07:37:36.719000+00:00", "duration": 685, "start_station_id": "398", "start_station_name": "Ringnes Park", "start_station_description": "ved Sannergata", "start_station_latitude": 59.92852, "start_station_longitude": 10.76047, "end_station_id": "430", "end_station_name": "Spikersuppa Vest", "end_station_description": "mot Stortingsgata", "end_station_latitude": 59.9137965, "end_station_longitude": 10.7358023}, {"started_at": "2019-06-01 07:26:12.668000+00:00", "ended_at": "2019-06-01 07:32:25.983000+00:00", "duration": 373, "start_station_id": "393", "start_station_name": "Hans Nielsen Hauges plass", "start_station_description": "Mellom \u00c5sengata og Nordkappgata", "start_station_latitude": 59.939244, "start_station_longitude": 10.774319, "end_station_id": "624", "end_station_name": "D\u00e6lenenggata", "end_station_description": "ved Fagerheimgata", "end_station_latitude": 59.928716, "end_station_longitude": 10.7675618}, {"started_at": "2019-06-01 07:27:08.682000+00:00", "ended_at": "2019-06-01 07:31:16.787000+00:00", "duration": 248, "start_station_id": "401", "start_station_name": "Schous plass", "start_station_description": "n\u00e6rmest Thorvald Meyers gate", "start_station_latitude": 59.920259, "start_station_longitude": 10.760629, "end_station_id": "460", "end_station_name": "Botanisk Hage s\u00f8r", "end_station_description": "langs Jens Bjelkes gate", "end_station_latitude": 59.9152819, "end_station_longitude": 10.7696199}, {"started_at": "2019-06-01 07:27:17.231000+00:00", "ended_at": "2019-06-01 07:35:46.372000+00:00", "duration": 509, "start_station_id": "458", "start_station_name": "Jenny Braatens Plass", "start_station_description": "ved Sinsenveien", "start_station_latitude": 59.928349, "start_station_longitude": 10.77837, "end_station_id": "402", "end_station_name": "L\u00f8renveien", "end_station_description": "under L\u00f8renparken", "end_station_latitude": 59.9311166, "end_station_longitude": 10.7910218}, {"started_at": "2019-06-01 07:27:56.109000+00:00", "ended_at": "2019-06-01 07:32:03.523000+00:00", "duration": 247, "start_station_id": "388", "start_station_name": "Skovveien", "start_station_description": "ved Frognerveien", "start_station_latitude": 59.9163309, "start_station_longitude": 10.716349, "end_station_id": "535", "end_station_name": "Uranienborgveien", "end_station_description": "Vest for Slottsparken", "end_station_latitude": 59.9200421, "end_station_longitude": 10.726634}, {"started_at": "2019-06-01 07:28:05.792000+00:00", "ended_at": "2019-06-01 07:30:18.618000+00:00", "duration": 132, "start_station_id": "507", "start_station_name": "Jens Bjelkes gate", "start_station_description": "ved Trondheimsveien", "start_station_latitude": 59.919179, "start_station_longitude": 10.764162, "end_station_id": "734", "end_station_name": "Nylandsveien", "end_station_description": "mellom Norbygata og Urtegata", "end_station_latitude": 59.9156603, "end_station_longitude": 10.7622812}, {"started_at": "2019-06-01 07:28:19.443000+00:00", "ended_at": "2019-06-01 08:07:43.311000+00:00", "duration": 2363, "start_station_id": "495", "start_station_name": "Vaterlandsparken", "start_station_description": "langs Brugata", "start_station_latitude": 59.913532, "start_station_longitude": 10.757334, "end_station_id": "483", "end_station_name": "Hausmanns gate", "end_station_description": "vest for Akerselva", "end_station_latitude": 59.915451, "end_station_longitude": 10.758328}, {"started_at": "2019-06-01 07:28:20.540000+00:00", "ended_at": "2019-06-01 08:09:52.365000+00:00", "duration": 2491, "start_station_id": "495", "start_station_name": "Vaterlandsparken", "start_station_description": "langs Brugata", "start_station_latitude": 59.913532, "start_station_longitude": 10.757334, "end_station_id": "734", "end_station_name": "Nylandsveien", "end_station_description": "mellom Norbygata og Urtegata", "end_station_latitude": 59.9156603, "end_station_longitude": 10.7622812}, {"started_at": "2019-06-01 07:28:33.932000+00:00", "ended_at": "2019-06-01 07:36:11.351000+00:00", "duration": 457, "start_station_id": "556", "start_station_name": "Pilestredet", "start_station_description": "ved Sporveisgata", "start_station_latitude": 59.9262242, "start_station_longitude": 10.7296246, "end_station_id": "444", "end_station_name": "AHO", "end_station_description": "langs Maridalsveien", "end_station_latitude": 59.925265, "end_station_longitude": 10.750462}, {"started_at": "2019-06-01 07:29:09.637000+00:00", "ended_at": "2019-06-01 08:41:42.951000+00:00", "duration": 4353, "start_station_id": "603", "start_station_name": "Frogner plass", "start_station_description": "i rundkj\u00f8ringen", "start_station_latitude": 59.9225392, "start_station_longitude": 10.7045406, "end_station_id": "454", "end_station_name": "Furulund", "end_station_description": "langs V\u00e6ker\u00f8veien", "end_station_latitude": 59.9198098, "end_station_longitude": 10.651118}, {"started_at": "2019-06-01 07:29:33.708000+00:00", "ended_at": "2019-06-01 07:42:08.921000+00:00", "duration": 755, "start_station_id": "421", "start_station_name": "Alexander Kiellands Plass", "start_station_description": "ved Maridalsveien", "start_station_latitude": 59.928058, "start_station_longitude": 10.751397, "end_station_id": "600", "end_station_name": "Dyvekes bru", "end_station_description": "ved skatepark", "end_station_latitude": 59.905323, "end_station_longitude": 10.7689579}, {"started_at": "2019-06-01 07:29:40.286000+00:00", "ended_at": "2019-06-01 07:38:31.582000+00:00", "duration": 531, "start_station_id": "596", "start_station_name": "Idioten", "start_station_description": "ved Sofies gate", "start_station_latitude": 59.9310814, "start_station_longitude": 10.7360029, "end_station_id": "511", "end_station_name": "Henrik Ibsens gate", "end_station_description": "ved Parkveien", "end_station_latitude": 59.915088, "end_station_longitude": 10.7222803}, {"started_at": "2019-06-01 07:29:53.624000+00:00", "ended_at": "2019-06-01 08:41:41.513000+00:00", "duration": 4307, "start_station_id": "603", "start_station_name": "Frogner plass", "start_station_description": "i rundkj\u00f8ringen", "start_station_latitude": 59.9225392, "start_station_longitude": 10.7045406, "end_station_id": "454", "end_station_name": "Furulund", "end_station_description": "langs V\u00e6ker\u00f8veien", "end_station_latitude": 59.9198098, "end_station_longitude": 10.651118}, {"started_at": "2019-06-01 07:30:41.780000+00:00", "ended_at": "2019-06-01 07:42:29.249000+00:00", "duration": 707, "start_station_id": "511", "start_station_name": "Henrik Ibsens gate", "start_station_description": "ved Parkveien", "start_station_latitude": 59.915088, "start_station_longitude": 10.7222803, "end_station_id": "453", "end_station_name": "Frogner Stadion", "end_station_description": "til venstre for hovedinngangen", "end_station_latitude": 59.927596, "end_station_longitude": 10.710033}, {"started_at": "2019-06-01 07:30:56.785000+00:00", "ended_at": "2019-06-01 07:36:15.029000+00:00", "duration": 318, "start_station_id": "408", "start_station_name": "T\u00f8yen skole", "start_station_description": "forsiden av skolebygget", "start_station_latitude": 59.914943, "start_station_longitude": 10.773977, "end_station_id": "463", "end_station_name": "Schous plass trikkestopp", "end_station_description": "ved biblioteket", "end_station_latitude": 59.9207284, "end_station_longitude": 10.7594857}, {"started_at": "2019-06-01 07:31:00.224000+00:00", "ended_at": "2019-06-01 07:39:18.331000+00:00", "duration": 498, "start_station_id": "534", "start_station_name": "Filipstadveien", "start_station_description": "Ved busslommen", "start_station_latitude": 59.9102277, "start_station_longitude": 10.7208788, "end_station_id": "550", "end_station_name": "Thereses gate", "end_station_description": "ved Bislett kollektivholdeplass", "end_station_latitude": 59.9261462, "end_station_longitude": 10.7310355}, {"started_at": "2019-06-01 07:31:38.923000+00:00", "ended_at": "2019-06-01 07:40:51.272000+00:00", "duration": 552, "start_station_id": "551", "start_station_name": "Olaf Ryes plass", "start_station_description": "ved Sofienberggata", "start_station_latitude": 59.922425, "start_station_longitude": 10.758182, "end_station_id": "600", "end_station_name": "Dyvekes bru", "end_station_description": "ved skatepark", "end_station_latitude": 59.905323, "end_station_longitude": 10.7689579}, {"started_at": "2019-06-01 07:31:57.862000+00:00", "ended_at": "2019-06-01 07:39:17.334000+00:00", "duration": 439, "start_station_id": "469", "start_station_name": "Studentparlamentet", "start_station_description": "ved Frydenlund holdeplass", "start_station_latitude": 59.920852, "start_station_longitude": 10.733357, "end_station_id": "558", "end_station_name": "Dokkveien", "end_station_description": "ved St\u00f8perigata", "end_station_latitude": 59.910974, "end_station_longitude": 10.7277001}, {"started_at": "2019-06-01 07:32:09.540000+00:00", "ended_at": "2019-06-01 07:42:25.728000+00:00", "duration": 616, "start_station_id": "424", "start_station_name": "Birkelunden", "start_station_description": "langs Seilduksgata", "start_station_latitude": 59.9256113, "start_station_longitude": 10.760926, "end_station_id": "528", "end_station_name": "Nedre Slottsgate", "end_station_description": "ved Grensen", "end_station_latitude": 59.913245, "end_station_longitude": 10.743669}, {"started_at": "2019-06-01 07:32:13.188000+00:00", "ended_at": "2019-06-01 07:36:36.310000+00:00", "duration": 263, "start_station_id": "503", "start_station_name": "Fagerheimgata", "start_station_description": "ved D\u00e6lenenga Busstopp", "start_station_latitude": 59.9274634, "start_station_longitude": 10.7657433, "end_station_id": "551", "end_station_name": "Olaf Ryes plass", "end_station_description": "ved Sofienberggata", "end_station_latitude": 59.922425, "end_station_longitude": 10.758182}, {"started_at": "2019-06-01 07:32:15.068000+00:00", "ended_at": "2019-06-01 07:37:19.551000+00:00", "duration": 304, "start_station_id": "563", "start_station_name": "Huitfeldts gate", "start_station_description": "mellom Cort Adelers gate og Observatoriegata", "start_station_latitude": 59.9126844, "start_station_longitude": 10.7229003, "end_station_id": "414", "end_station_name": "Kontraskj\u00e6ret", "end_station_description": "ved skr\u00e5ning ned mot Pipervika", "end_station_latitude": 59.910242, "end_station_longitude": 10.73857}, {"started_at": "2019-06-01 07:32:20.219000+00:00", "ended_at": "2019-06-01 07:43:41.089000+00:00", "duration": 680, "start_station_id": "613", "start_station_name": "Schives gate", "start_station_description": "ved Arno Bergs plass", "start_station_latitude": 59.9208044, "start_station_longitude": 10.7140544, "end_station_id": "445", "end_station_name": "Sj\u00f8lyst", "end_station_description": "langs Drammensveien", "end_station_latitude": 59.921673, "end_station_longitude": 10.67666}, {"started_at": "2019-06-01 07:32:58.903000+00:00", "ended_at": "2019-06-01 08:27:37.740000+00:00", "duration": 3278, "start_station_id": "735", "start_station_name": "Oslo Hospital", "start_station_description": "ved trikkestoppet", "start_station_latitude": 59.9031036, "start_station_longitude": 10.7673282, "end_station_id": "553", "end_station_name": "Skr\u00e5ninga", "end_station_description": "ved Torggata", "end_station_latitude": 59.9139786, "end_station_longitude": 10.7474667}, {"started_at": "2019-06-01 07:33:19.469000+00:00", "ended_at": "2019-06-01 07:37:12.395000+00:00", "duration": 232, "start_station_id": "431", "start_station_name": "Chr. Michelsens Gate", "start_station_description": "ved Fjellgata", "start_station_latitude": 59.927292, "start_station_longitude": 10.773185, "end_station_id": "744", "end_station_name": "Hall\u00e9nparken", "end_station_description": "ved Vogts gate", "end_station_latitude": 59.9315302, "end_station_longitude": 10.762169}, {"started_at": "2019-06-01 07:33:25.933000+00:00", "ended_at": "2019-06-01 07:41:20.851000+00:00", "duration": 474, "start_station_id": "403", "start_station_name": "Parkveien", "start_station_description": "utenfor Katedralen pub", "start_station_latitude": 59.921768, "start_station_longitude": 10.730476, "end_station_id": "430", "end_station_name": "Spikersuppa Vest", "end_station_description": "mot Stortingsgata", "end_station_latitude": 59.9137965, "end_station_longitude": 10.7358023}, {"started_at": "2019-06-01 07:33:35.106000+00:00", "ended_at": "2019-06-01 07:47:22.568000+00:00", "duration": 827, "start_station_id": "420", "start_station_name": "Bj\u00f8lsendumpa", "start_station_description": "langs Treschows gate", "start_station_latitude": 59.94034, "start_station_longitude": 10.766079, "end_station_id": "405", "end_station_name": "Frognerbadet", "end_station_description": "ved Middelthuns gate", "end_station_latitude": 59.92808, "end_station_longitude": 10.708767}, {"started_at": "2019-06-01 07:33:44.843000+00:00", "ended_at": "2019-06-01 07:37:41.210000+00:00", "duration": 236, "start_station_id": "469", "start_station_name": "Studentparlamentet", "start_station_description": "ved Frydenlund holdeplass", "start_station_latitude": 59.920852, "start_station_longitude": 10.733357, "end_station_id": "550", "end_station_name": "Thereses gate", "end_station_description": "ved Bislett kollektivholdeplass", "end_station_latitude": 59.9261462, "end_station_longitude": 10.7310355}, {"started_at": "2019-06-01 07:33:58.819000+00:00", "ended_at": "2019-06-01 07:39:08.820000+00:00", "duration": 310, "start_station_id": "583", "start_station_name": "Galgeberg", "start_station_description": "Ved St. Halvards gate", "start_station_latitude": 59.9071, "start_station_longitude": 10.77921, "end_station_id": "408", "end_station_name": "T\u00f8yen skole", "end_station_description": "forsiden av skolebygget", "end_station_latitude": 59.914943, "end_station_longitude": 10.773977}, {"started_at": "2019-06-01 07:34:23.940000+00:00", "ended_at": "2019-06-01 07:35:29.580000+00:00", "duration": 65, "start_station_id": "500", "start_station_name": "Anker Hostel", "start_station_description": "ved Storgata", "start_station_latitude": 59.9172794, "start_station_longitude": 10.7581553, "end_station_id": "500", "end_station_name": "Anker Hostel", "end_station_description": "ved Storgata", "end_station_latitude": 59.9172794, "end_station_longitude": 10.7581553}, {"started_at": "2019-06-01 07:34:33.887000+00:00", "ended_at": "2019-06-01 13:45:20.332000+00:00", "duration": 22246, "start_station_id": "500", "start_station_name": "Anker Hostel", "start_station_description": "ved Storgata", "start_station_latitude": 59.9172794, "start_station_longitude": 10.7581553, "end_station_id": "507", "end_station_name": "Jens Bjelkes gate", "end_station_description": "ved Trondheimsveien", "end_station_latitude": 59.919179, "end_station_longitude": 10.764162}, {"started_at": "2019-06-01 07:34:34.306000+00:00", "ended_at": "2019-06-01 13:47:58.089000+00:00", "duration": 22403, "start_station_id": "500", "start_station_name": "Anker Hostel", "start_station_description": "ved Storgata", "start_station_latitude": 59.9172794, "start_station_longitude": 10.7581553, "end_station_id": "569", "end_station_name": "Botanisk hage s\u00f8r-vest", "end_station_description": "ved Sars' gate", "end_station_latitude": 59.9177943, "end_station_longitude": 10.7662784}, {"started_at": "2019-06-01 07:34:37.469000+00:00", "ended_at": "2019-06-01 13:45:27.660000+00:00", "duration": 22250, "start_station_id": "500", "start_station_name": "Anker Hostel", "start_station_description": "ved Storgata", "start_station_latitude": 59.9172794, "start_station_longitude": 10.7581553, "end_station_id": "507", "end_station_name": "Jens Bjelkes gate", "end_station_description": "ved Trondheimsveien", "end_station_latitude": 59.919179, "end_station_longitude": 10.764162}, {"started_at": "2019-06-01 07:35:13.092000+00:00", "ended_at": "2019-06-01 07:42:51.572000+00:00", "duration": 458, "start_station_id": "597", "start_station_name": "Fredensborg", "start_station_description": "ved rundkj\u00f8ringen", "start_station_latitude": 59.920995, "start_station_longitude": 10.750358, "end_station_id": "495", "end_station_name": "Vaterlandsparken", "end_station_description": "langs Brugata", "end_station_latitude": 59.913532, "end_station_longitude": 10.757334}, {"started_at": "2019-06-01 07:35:14.222000+00:00", "ended_at": "2019-06-01 13:47:29.891000+00:00", "duration": 22335, "start_station_id": "500", "start_station_name": "Anker Hostel", "start_station_description": "ved Storgata", "start_station_latitude": 59.9172794, "start_station_longitude": 10.7581553, "end_station_id": "569", "end_station_name": "Botanisk hage s\u00f8r-vest", "end_station_description": "ved Sars' gate", "end_station_latitude": 59.9177943, "end_station_longitude": 10.7662784}, {"started_at": "2019-06-01 07:35:17.821000+00:00", "ended_at": "2019-06-01 07:36:32.715000+00:00", "duration": 74, "start_station_id": "561", "start_station_name": "Kirkeveien", "start_station_description": "nord for G\u00f8rbitz' gate", "start_station_latitude": 59.9335582, "start_station_longitude": 10.7264261, "end_station_id": "505", "end_station_name": "Marienlystparken", "end_station_description": "langs Kirkeveien", "end_station_latitude": 59.93215, "end_station_longitude": 10.723478}, {"started_at": "2019-06-01 07:35:26.016000+00:00", "ended_at": "2019-06-01 08:38:31.082000+00:00", "duration": 3785, "start_station_id": "456", "start_station_name": "Frognerstranda", "start_station_description": "ved Kongen Marina", "start_station_latitude": 59.9103558, "start_station_longitude": 10.7051061, "end_station_id": "739", "end_station_name": "Hammersborg Torg", "end_station_description": "i M\u00f8llergata", "end_station_latitude": 59.916536, "end_station_longitude": 10.749162}, {"started_at": "2019-06-01 07:35:28.326000+00:00", "ended_at": "2019-06-01 07:45:50.735000+00:00", "duration": 622, "start_station_id": "479", "start_station_name": "Tjuvholmen", "start_station_description": "nedenfor bussholdeplassen", "start_station_latitude": 59.909467, "start_station_longitude": 10.722509, "end_station_id": "577", "end_station_name": "Arkaden Nord", "end_station_description": "ved Dronningens gate", "end_station_latitude": 59.9121472, "end_station_longitude": 10.7480527}, {"started_at": "2019-06-01 07:35:48.210000+00:00", "ended_at": "2019-06-01 08:38:52.535000+00:00", "duration": 3784, "start_station_id": "456", "start_station_name": "Frognerstranda", "start_station_description": "ved Kongen Marina", "start_station_latitude": 59.9103558, "start_station_longitude": 10.7051061, "end_station_id": "739", "end_station_name": "Hammersborg Torg", "end_station_description": "i M\u00f8llergata", "end_station_latitude": 59.916536, "end_station_longitude": 10.749162}, {"started_at": "2019-06-01 07:35:58.268000+00:00", "ended_at": "2019-06-01 07:40:52.486000+00:00", "duration": 294, "start_station_id": "584", "start_station_name": "Henrik Wergelands all\u00e9", "start_station_description": "ved Bogstadveien", "start_station_latitude": 59.9268942, "start_station_longitude": 10.7207894, "end_station_id": "588", "end_station_name": "Meltzers gate", "end_station_description": "ved Skovveien", "end_station_latitude": 59.9180141, "end_station_longitude": 10.7184345}, {"started_at": "2019-06-01 07:36:12.918000+00:00", "ended_at": "2019-06-01 07:43:32.112000+00:00", "duration": 439, "start_station_id": "606", "start_station_name": "Stockfleths gate", "start_station_description": "ved Griffenfeldts gate", "start_station_latitude": 59.9339754, "start_station_longitude": 10.7521029, "end_station_id": "739", "end_station_name": "Hammersborg Torg", "end_station_description": "i M\u00f8llergata", "end_station_latitude": 59.916536, "end_station_longitude": 10.749162}, {"started_at": "2019-06-01 07:36:14.180000+00:00", "ended_at": "2019-06-01 07:43:22.445000+00:00", "duration": 428, "start_station_id": "579", "start_station_name": "Bogstadveien", "start_station_description": "ved Sporveisgata", "start_station_latitude": 59.924732, "start_station_longitude": 10.724628, "end_station_id": "421", "end_station_name": "Alexander Kiellands Plass", "end_station_description": "ved Maridalsveien", "end_station_latitude": 59.928058, "end_station_longitude": 10.751397}, {"started_at": "2019-06-01 07:36:27.730000+00:00", "ended_at": "2019-06-01 07:44:21.879000+00:00", "duration": 474, "start_station_id": "547", "start_station_name": "Skippergata", "start_station_description": "sidegaten til Karl Johans gate", "start_station_latitude": 59.9112227, "start_station_longitude": 10.7481976, "end_station_id": "435", "end_station_name": "Fram-g\u00e5rden", "end_station_description": "langs Bygd\u00f8y All\u00e9", "end_station_latitude": 59.915424, "end_station_longitude": 10.714577}, {"started_at": "2019-06-01 07:36:33.492000+00:00", "ended_at": "2019-06-01 07:46:50.797000+00:00", "duration": 617, "start_station_id": "388", "start_station_name": "Skovveien", "start_station_description": "ved Frognerveien", "start_station_latitude": 59.9163309, "start_station_longitude": 10.716349, "end_station_id": "453", "end_station_name": "Frogner Stadion", "end_station_description": "til venstre for hovedinngangen", "end_station_latitude": 59.927596, "end_station_longitude": 10.710033}, {"started_at": "2019-06-01 07:36:36.194000+00:00", "ended_at": "2019-06-01 07:46:43.793000+00:00", "duration": 607, "start_station_id": "463", "start_station_name": "Schous plass trikkestopp", "start_station_description": "ved biblioteket", "start_station_latitude": 59.9207284, "start_station_longitude": 10.7594857, "end_station_id": "562", "end_station_name": "Slottsparken \u00d8st", "end_station_description": "mellom Wergelandsveien og Holbergs gate", "end_station_latitude": 59.917485, "end_station_longitude": 10.732128}, {"started_at": "2019-06-01 07:36:36.732000+00:00", "ended_at": "2019-06-01 07:46:49.407000+00:00", "duration": 612, "start_station_id": "404", "start_station_name": "Oslo Handelsgymnasium", "start_station_description": "ved Solligata", "start_station_latitude": 59.914306, "start_station_longitude": 10.720202, "end_station_id": "453", "end_station_name": "Frogner Stadion", "end_station_description": "til venstre for hovedinngangen", "end_station_latitude": 59.927596, "end_station_longitude": 10.710033}, {"started_at": "2019-06-01 07:37:18.085000+00:00", "ended_at": "2019-06-01 07:41:43.683000+00:00", "duration": 265, "start_station_id": "586", "start_station_name": "K\u00f8benhavngata busstopp", "start_station_description": "ved Fagerheim tennisklubb", "start_station_latitude": 59.9294754, "start_station_longitude": 10.769151, "end_station_id": "540", "end_station_name": "Lilleborgbanen", "end_station_description": "langs Ole Bulls gate", "end_station_latitude": 59.933727, "end_station_longitude": 10.769094}, {"started_at": "2019-06-01 07:37:22.948000+00:00", "ended_at": "2019-06-01 07:45:34.391000+00:00", "duration": 491, "start_station_id": "598", "start_station_name": "Sofienbergparken nord", "start_station_description": "langs Helgesens gate", "start_station_latitude": 59.923229, "start_station_longitude": 10.766171, "end_station_id": "526", "end_station_name": "Lille Grensen", "end_station_description": "Ved Akersgata", "end_station_latitude": 59.9138973, "end_station_longitude": 10.7423101}, {"started_at": "2019-06-01 07:37:23.140000+00:00", "ended_at": "2019-06-01 07:43:10.704000+00:00", "duration": 347, "start_station_id": "586", "start_station_name": "K\u00f8benhavngata busstopp", "start_station_description": "ved Fagerheim tennisklubb", "start_station_latitude": 59.9294754, "start_station_longitude": 10.769151, "end_station_id": "408", "end_station_name": "T\u00f8yen skole", "end_station_description": "forsiden av skolebygget", "end_station_latitude": 59.914943, "end_station_longitude": 10.773977}, {"started_at": "2019-06-01 07:37:45.780000+00:00", "ended_at": "2019-06-01 07:44:25.514000+00:00", "duration": 399, "start_station_id": "383", "start_station_name": "Arkitekt Rivertz Plass", "start_station_description": "i Uelands gate", "start_station_latitude": 59.934936, "start_station_longitude": 10.749466, "end_station_id": "420", "end_station_name": "Bj\u00f8lsendumpa", "end_station_description": "langs Treschows gate", "end_station_latitude": 59.94034, "end_station_longitude": 10.766079}, {"started_at": "2019-06-01 07:37:50.971000+00:00", "ended_at": "2019-06-01 07:55:53.293000+00:00", "duration": 1082, "start_station_id": "493", "start_station_name": "Sofienbergparken nordvest", "start_station_description": "ved Toftes gate", "start_station_latitude": 59.9243639, "start_station_longitude": 10.7615858, "end_station_id": "599", "end_station_name": "Pal\u00e9haven", "end_station_description": "langs Strandgata", "end_station_latitude": 59.910331, "end_station_longitude": 10.75011}, {"started_at": "2019-06-01 07:38:13.903000+00:00", "ended_at": "2019-06-01 07:51:37.130000+00:00", "duration": 803, "start_station_id": "550", "start_station_name": "Thereses gate", "start_station_description": "ved Bislett kollektivholdeplass", "start_station_latitude": 59.9261462, "start_station_longitude": 10.7310355, "end_station_id": "575", "end_station_name": "Sognsveien", "end_station_description": "ved Ullev\u00e5l Stadion", "end_station_latitude": 59.9474863, "end_station_longitude": 10.7324195}, {"started_at": "2019-06-01 07:38:26.485000+00:00", "ended_at": "2019-06-01 07:42:30.850000+00:00", "duration": 244, "start_station_id": "591", "start_station_name": "Grenseveien", "start_station_description": "ved Gj\u00f8vikbanen", "start_station_latitude": 59.9246227, "start_station_longitude": 10.7815924, "end_station_id": "411", "end_station_name": "Hasle Torg", "end_station_description": "ved busstoppet", "end_station_latitude": 59.9232266, "end_station_longitude": 10.7928824}, {"started_at": "2019-06-01 07:39:02.719000+00:00", "ended_at": "2019-06-01 07:46:20.713000+00:00", "duration": 437, "start_station_id": "399", "start_station_name": "Uelands gate", "start_station_description": "Ved Ulvetrappen (Ilatrappen)", "start_station_latitude": 59.929545, "start_station_longitude": 10.7489862, "end_station_id": "477", "end_station_name": "M\u00f8llergata", "end_station_description": "rett over Youngstorget", "end_station_latitude": 59.9154413, "end_station_longitude": 10.7485819}, {"started_at": "2019-06-01 07:39:09.945000+00:00", "ended_at": "2019-06-01 07:51:05.145000+00:00", "duration": 715, "start_station_id": "463", "start_station_name": "Schous plass trikkestopp", "start_station_description": "ved biblioteket", "start_station_latitude": 59.9207284, "start_station_longitude": 10.7594857, "end_station_id": "430", "end_station_name": "Spikersuppa Vest", "end_station_description": "mot Stortingsgata", "end_station_latitude": 59.9137965, "end_station_longitude": 10.7358023}, {"started_at": "2019-06-01 07:39:10.200000+00:00", "ended_at": "2019-06-01 07:44:38.715000+00:00", "duration": 328, "start_station_id": "547", "start_station_name": "Skippergata", "start_station_description": "sidegaten til Karl Johans gate", "start_station_latitude": 59.9112227, "start_station_longitude": 10.7481976, "end_station_id": "494", "end_station_name": "R\u00e5dhusbrygge 4", "end_station_description": "ved Nesoddb\u00e5ten", "end_station_latitude": 59.9108469, "end_station_longitude": 10.7303766}, {"started_at": "2019-06-01 07:39:13.580000+00:00", "ended_at": "2019-06-01 07:46:19.089000+00:00", "duration": 425, "start_station_id": "519", "start_station_name": "Thomas Heftyes plass", "start_station_description": "ved Bygd\u00f8y all\u00e9", "start_station_latitude": 59.9185405, "start_station_longitude": 10.7039116, "end_station_id": "430", "end_station_name": "Spikersuppa Vest", "end_station_description": "mot Stortingsgata", "end_station_latitude": 59.9137965, "end_station_longitude": 10.7358023}, {"started_at": "2019-06-01 07:39:18.466000+00:00", "ended_at": "2019-06-01 07:52:58.242000+00:00", "duration": 819, "start_station_id": "382", "start_station_name": "Stensgata", "start_station_description": "ved trikkestoppet", "start_station_latitude": 59.929634, "start_station_longitude": 10.732839, "end_station_id": "603", "end_station_name": "Frogner plass", "end_station_description": "i rundkj\u00f8ringen", "end_station_latitude": 59.9225392, "end_station_longitude": 10.7045406}, {"started_at": "2019-06-01 07:39:56.939000+00:00", "ended_at": "2019-06-01 07:53:30.186000+00:00", "duration": 813, "start_station_id": "518", "start_station_name": "Ullev\u00e5lsveien", "start_station_description": "Ved St. Hanshaugen park S\u00f8r", "start_station_latitude": 59.9246852, "start_station_longitude": 10.7395045, "end_station_id": "481", "end_station_name": "R\u00e5dhusgata", "end_station_description": "ved Kontraskj\u00e6ret trikkestopp", "end_station_latitude": 59.910924, "end_station_longitude": 10.736215}, {"started_at": "2019-06-01 07:40:04.499000+00:00", "ended_at": "2019-06-01 07:53:57.316000+00:00", "duration": 832, "start_station_id": "384", "start_station_name": "V\u00e5r Frelsers gravlund s\u00f8r", "start_station_description": "langs Ullev\u00e5lsveien", "start_station_latitude": 59.919463, "start_station_longitude": 10.743829, "end_station_id": "529", "end_station_name": "Friggfeltet", "end_station_description": "ved Slemdalsveien", "end_station_latitude": 59.9327726, "end_station_longitude": 10.7114661}, {"started_at": "2019-06-01 07:40:08.085000+00:00", "ended_at": "2019-06-01 07:54:27.185000+00:00", "duration": 859, "start_station_id": "734", "start_station_name": "Nylandsveien", "start_station_description": "mellom Norbygata og Urtegata", "start_station_latitude": 59.9156603, "start_station_longitude": 10.7622812, "end_station_id": "579", "end_station_name": "Bogstadveien", "end_station_description": "ved Sporveisgata", "end_station_latitude": 59.924732, "end_station_longitude": 10.724628}, {"started_at": "2019-06-01 07:40:24.170000+00:00", "ended_at": "2019-06-01 07:47:10.733000+00:00", "duration": 406, "start_station_id": "470", "start_station_name": "St. Hanshaugen park nord", "start_station_description": "krysset Colletts gt / Geitmyrsveien", "start_station_latitude": 59.929771, "start_station_longitude": 10.743524, "end_station_id": "413", "end_station_name": "Majorstuen", "end_station_description": "utenfor banken i Majorstukrysset", "end_station_latitude": 59.929045, "end_station_longitude": 10.716926}, {"started_at": "2019-06-01 07:40:51.118000+00:00", "ended_at": "2019-06-01 07:54:50.146000+00:00", "duration": 839, "start_station_id": "621", "start_station_name": "Torshovdalen \u00f8st", "start_station_description": "ved Mailundveien rundkj\u00f8ring", "start_station_latitude": 59.9328069, "start_station_longitude": 10.7774484, "end_station_id": "494", "end_station_name": "R\u00e5dhusbrygge 4", "end_station_description": "ved Nesoddb\u00e5ten", "end_station_latitude": 59.9108469, "end_station_longitude": 10.7303766}, {"started_at": "2019-06-01 07:41:04.449000+00:00", "ended_at": "2019-06-01 07:48:15.619000+00:00", "duration": 431, "start_station_id": "535", "start_station_name": "Uranienborgveien", "start_station_description": "Vest for Slottsparken", "start_station_latitude": 59.9200421, "start_station_longitude": 10.726634, "end_station_id": "558", "end_station_name": "Dokkveien", "end_station_description": "ved St\u00f8perigata", "end_station_latitude": 59.910974, "end_station_longitude": 10.7277001}, {"started_at": "2019-06-01 07:41:31.647000+00:00", "ended_at": "2019-06-01 07:43:33.351000+00:00", "duration": 121, "start_station_id": "413", "start_station_name": "Majorstuen", "start_station_description": "utenfor banken i Majorstukrysset", "start_station_latitude": 59.929045, "start_station_longitude": 10.716926, "end_station_id": "584", "end_station_name": "Henrik Wergelands all\u00e9", "end_station_description": "ved Bogstadveien", "end_station_latitude": 59.9268942, "end_station_longitude": 10.7207894}, {"started_at": "2019-06-01 07:41:41.279000+00:00", "ended_at": "2019-06-01 07:45:54.534000+00:00", "duration": 253, "start_station_id": "591", "start_station_name": "Grenseveien", "start_station_description": "ved Gj\u00f8vikbanen", "start_station_latitude": 59.9246227, "start_station_longitude": 10.7815924, "end_station_id": "586", "end_station_name": "K\u00f8benhavngata busstopp", "end_station_description": "ved Fagerheim tennisklubb", "end_station_latitude": 59.9294754, "end_station_longitude": 10.769151}, {"started_at": "2019-06-01 07:41:42.122000+00:00", "ended_at": "2019-06-01 07:51:35.615000+00:00", "duration": 593, "start_station_id": "609", "start_station_name": "Fred Olsens gate", "start_station_description": "ved Karl Johans gate", "start_station_latitude": 59.9110506, "start_station_longitude": 10.7493737, "end_station_id": "424", "end_station_name": "Birkelunden", "end_station_description": "langs Seilduksgata", "end_station_latitude": 59.9256113, "end_station_longitude": 10.760926}, {"started_at": "2019-06-01 07:42:12.288000+00:00", "ended_at": "2019-06-01 07:56:41.230000+00:00", "duration": 868, "start_station_id": "737", "start_station_name": "Munkegata trikkestopp", "start_station_description": "langs Oslo gate", "start_station_latitude": 59.908255, "start_station_longitude": 10.7678, "end_station_id": "579", "end_station_name": "Bogstadveien", "end_station_description": "ved Sporveisgata", "end_station_latitude": 59.924732, "end_station_longitude": 10.724628}, {"started_at": "2019-06-01 07:42:30.330000+00:00", "ended_at": "2019-06-01 07:52:14.358000+00:00", "duration": 584, "start_station_id": "462", "start_station_name": "Stensparken", "start_station_description": "ved Sporveisgata", "start_station_latitude": 59.92714, "start_station_longitude": 10.730981, "end_station_id": "414", "end_station_name": "Kontraskj\u00e6ret", "end_station_description": "ved skr\u00e5ning ned mot Pipervika", "end_station_latitude": 59.910242, "end_station_longitude": 10.73857}, {"started_at": "2019-06-01 07:43:14.410000+00:00", "ended_at": "2019-06-01 07:54:25.357000+00:00", "duration": 670, "start_station_id": "457", "start_station_name": "Trondheimsveien", "start_station_description": "Ved trikkestoppet", "start_station_latitude": 59.9230577, "start_station_longitude": 10.7717192, "end_station_id": "625", "end_station_name": "Spikersuppa \u00d8st", "end_station_description": "mot Stortingsgata", "end_station_latitude": 59.91336, "end_station_longitude": 10.737663}, {"started_at": "2019-06-01 07:43:21.104000+00:00", "ended_at": "2019-06-01 07:54:08.117000+00:00", "duration": 647, "start_station_id": "415", "start_station_name": "Sinsenveien", "start_station_description": "ved Kongehellegata", "start_station_latitude": 59.929542, "start_station_longitude": 10.781053, "end_station_id": "421", "end_station_name": "Alexander Kiellands Plass", "end_station_description": "ved Maridalsveien", "end_station_latitude": 59.928058, "end_station_longitude": 10.751397}, {"started_at": "2019-06-01 07:43:21.841000+00:00", "ended_at": "2019-06-01 07:49:23.085000+00:00", "duration": 361, "start_station_id": "480", "start_station_name": "Helga Helgesens plass", "start_station_description": "langs Gr\u00f8nlandsleiret", "start_station_latitude": 59.9121109, "start_station_longitude": 10.7661939, "end_station_id": "526", "end_station_name": "Lille Grensen", "end_station_description": "Ved Akersgata", "end_station_latitude": 59.9138973, "end_station_longitude": 10.7423101}, {"started_at": "2019-06-01 07:43:35.723000+00:00", "ended_at": "2019-06-01 07:52:23.322000+00:00", "duration": 527, "start_station_id": "444", "start_station_name": "AHO", "start_station_description": "langs Maridalsveien", "start_station_latitude": 59.925265, "start_station_longitude": 10.750462, "end_station_id": "577", "end_station_name": "Arkaden Nord", "end_station_description": "ved Dronningens gate", "end_station_latitude": 59.9121472, "end_station_longitude": 10.7480527}, {"started_at": "2019-06-01 07:44:34.526000+00:00", "ended_at": "2019-06-01 07:52:40.381000+00:00", "duration": 485, "start_station_id": "493", "start_station_name": "Sofienbergparken nordvest", "start_station_description": "ved Toftes gate", "start_station_latitude": 59.9243639, "start_station_longitude": 10.7615858, "end_station_id": "485", "end_station_name": "Sommerfrydhagen", "end_station_description": "i Jens Bjelkes gate", "end_station_latitude": 59.911453, "end_station_longitude": 10.776072}, {"started_at": "2019-06-01 07:44:35.490000+00:00", "ended_at": "2019-06-01 07:57:13.567000+00:00", "duration": 758, "start_station_id": "598", "start_station_name": "Sofienbergparken nord", "start_station_description": "langs Helgesens gate", "start_station_latitude": 59.923229, "start_station_longitude": 10.766171, "end_station_id": "577", "end_station_name": "Arkaden Nord", "end_station_description": "ved Dronningens gate", "end_station_latitude": 59.9121472, "end_station_longitude": 10.7480527}, {"started_at": "2019-06-01 07:44:43.348000+00:00", "ended_at": "2019-06-01 07:52:36.017000+00:00", "duration": 472, "start_station_id": "537", "start_station_name": "St. Olavs gate", "start_station_description": "ved Pilestredet", "start_station_latitude": 59.9179859, "start_station_longitude": 10.7385805, "end_station_id": "435", "end_station_name": "Fram-g\u00e5rden", "end_station_description": "langs Bygd\u00f8y All\u00e9", "end_station_latitude": 59.915424, "end_station_longitude": 10.714577}, {"started_at": "2019-06-01 07:44:49.394000+00:00", "ended_at": "2019-06-01 07:54:28.180000+00:00", "duration": 578, "start_station_id": "457", "start_station_name": "Trondheimsveien", "start_station_description": "Ved trikkestoppet", "start_station_latitude": 59.9230577, "start_station_longitude": 10.7717192, "end_station_id": "526", "end_station_name": "Lille Grensen", "end_station_description": "Ved Akersgata", "end_station_latitude": 59.9138973, "end_station_longitude": 10.7423101}, {"started_at": "2019-06-01 07:45:00.075000+00:00", "ended_at": "2019-06-01 08:52:14.466000+00:00", "duration": 4034, "start_station_id": "443", "start_station_name": "Sj\u00f8siden \u00f8st", "start_station_description": "n\u00e6rmest trappen", "start_station_latitude": 59.910178, "start_station_longitude": 10.751824, "end_station_id": "443", "end_station_name": "Sj\u00f8siden \u00f8st", "end_station_description": "n\u00e6rmest trappen", "end_station_latitude": 59.910178, "end_station_longitude": 10.751824}, {"started_at": "2019-06-01 07:45:03.772000+00:00", "ended_at": "2019-06-01 07:57:08.235000+00:00", "duration": 724, "start_station_id": "408", "start_station_name": "T\u00f8yen skole", "start_station_description": "forsiden av skolebygget", "start_station_latitude": 59.914943, "start_station_longitude": 10.773977, "end_station_id": "389", "end_station_name": "Pilestredet Studenthus", "end_station_description": "ved Stensberggata", "end_station_latitude": 59.9205528, "end_station_longitude": 10.7342854}, {"started_at": "2019-06-01 07:45:19.858000+00:00", "ended_at": "2019-06-01 07:54:00.942000+00:00", "duration": 521, "start_station_id": "402", "start_station_name": "L\u00f8renveien", "start_station_description": "under L\u00f8renparken", "start_station_latitude": 59.9311166, "start_station_longitude": 10.7910218, "end_station_id": "538", "end_station_name": "Bernt Ankers gate", "end_station_description": "ved Storgata", "end_station_latitude": 59.9147887, "end_station_longitude": 10.7537068}, {"started_at": "2019-06-01 07:45:24.201000+00:00", "ended_at": "2019-06-01 07:51:19.748000+00:00", "duration": 355, "start_station_id": "530", "start_station_name": "Holbergs Plass", "start_station_description": "ved Welhavens gate", "start_station_latitude": 59.9193095, "start_station_longitude": 10.7343051, "end_station_id": "577", "end_station_name": "Arkaden Nord", "end_station_description": "ved Dronningens gate", "end_station_latitude": 59.9121472, "end_station_longitude": 10.7480527}, {"started_at": "2019-06-01 07:45:39.266000+00:00", "ended_at": "2019-06-01 07:55:34.414000+00:00", "duration": 595, "start_station_id": "458", "start_station_name": "Jenny Braatens Plass", "start_station_description": "ved Sinsenveien", "start_station_latitude": 59.928349, "start_station_longitude": 10.77837, "end_station_id": "522", "end_station_name": "Mandalls gate", "end_station_description": "ved Gr\u00f8nlandsleiret", "end_station_latitude": 59.9123469, "end_station_longitude": 10.7638147}, {"started_at": "2019-06-01 07:46:22.303000+00:00", "ended_at": "2019-06-01 07:54:56.818000+00:00", "duration": 514, "start_station_id": "568", "start_station_name": "Frognerveien", "start_station_description": "ved Vestheimgata", "start_station_latitude": 59.9170851, "start_station_longitude": 10.7128796, "end_station_id": "430", "end_station_name": "Spikersuppa Vest", "end_station_description": "mot Stortingsgata", "end_station_latitude": 59.9137965, "end_station_longitude": 10.7358023}, {"started_at": "2019-06-01 07:46:40.096000+00:00", "ended_at": "2019-06-01 07:54:58.922000+00:00", "duration": 498, "start_station_id": "568", "start_station_name": "Frognerveien", "start_station_description": "ved Vestheimgata", "start_station_latitude": 59.9170851, "start_station_longitude": 10.7128796, "end_station_id": "537", "end_station_name": "St. Olavs gate", "end_station_description": "ved Pilestredet", "end_station_latitude": 59.9179859, "end_station_longitude": 10.7385805}, {"started_at": "2019-06-01 07:46:51.748000+00:00", "ended_at": "2019-06-01 08:46:57.081000+00:00", "duration": 3605, "start_station_id": "532", "start_station_name": "Bryn T-Bane", "start_station_description": "Ved \u00d8stensj\u00f8veien", "start_station_latitude": 59.909238, "start_station_longitude": 10.814199, "end_station_id": "537", "end_station_name": "St. Olavs gate", "end_station_description": "ved Pilestredet", "end_station_latitude": 59.9179859, "end_station_longitude": 10.7385805}, {"started_at": "2019-06-01 07:46:57.529000+00:00", "ended_at": "2019-06-01 07:53:13.533000+00:00", "duration": 376, "start_station_id": "582", "start_station_name": "Stavangergata", "start_station_description": "ved Uelands gate", "start_station_latitude": 59.941108, "start_station_longitude": 10.7506048, "end_station_id": "409", "end_station_name": "John Colletts plass", "end_station_description": "ved Sognsveien", "end_station_latitude": 59.940398, "end_station_longitude": 10.730036}, {"started_at": "2019-06-01 07:47:02.561000+00:00", "ended_at": "2019-06-01 07:54:58.094000+00:00", "duration": 475, "start_station_id": "568", "start_station_name": "Frognerveien", "start_station_description": "ved Vestheimgata", "start_station_latitude": 59.9170851, "start_station_longitude": 10.7128796, "end_station_id": "537", "end_station_name": "St. Olavs gate", "end_station_description": "ved Pilestredet", "end_station_latitude": 59.9179859, "end_station_longitude": 10.7385805}, {"started_at": "2019-06-01 07:47:02.739000+00:00", "ended_at": "2019-06-01 08:23:34.272000+00:00", "duration": 2191, "start_station_id": "511", "start_station_name": "Henrik Ibsens gate", "start_station_description": "ved Parkveien", "start_station_latitude": 59.915088, "start_station_longitude": 10.7222803, "end_station_id": "579", "end_station_name": "Bogstadveien", "end_station_description": "ved Sporveisgata", "end_station_latitude": 59.924732, "end_station_longitude": 10.724628}, {"started_at": "2019-06-01 07:47:03.642000+00:00", "ended_at": "2019-06-01 08:46:59.299000+00:00", "duration": 3595, "start_station_id": "532", "start_station_name": "Bryn T-Bane", "start_station_description": "Ved \u00d8stensj\u00f8veien", "start_station_latitude": 59.909238, "start_station_longitude": 10.814199, "end_station_id": "537", "end_station_name": "St. Olavs gate", "end_station_description": "ved Pilestredet", "end_station_latitude": 59.9179859, "end_station_longitude": 10.7385805}, {"started_at": "2019-06-01 07:47:04.918000+00:00", "ended_at": "2019-06-01 08:23:14.806000+00:00", "duration": 2169, "start_station_id": "511", "start_station_name": "Henrik Ibsens gate", "start_station_description": "ved Parkveien", "start_station_latitude": 59.915088, "start_station_longitude": 10.7222803, "end_station_id": "579", "end_station_name": "Bogstadveien", "end_station_description": "ved Sporveisgata", "end_station_latitude": 59.924732, "end_station_longitude": 10.724628}, {"started_at": "2019-06-01 07:47:10.491000+00:00", "ended_at": "2019-06-01 07:52:46.719000+00:00", "duration": 336, "start_station_id": "500", "start_station_name": "Anker Hostel", "start_station_description": "ved Storgata", "start_station_latitude": 59.9172794, "start_station_longitude": 10.7581553, "end_station_id": "609", "end_station_name": "Fred Olsens gate", "end_station_description": "ved Karl Johans gate", "end_station_latitude": 59.9110506, "end_station_longitude": 10.7493737}, {"started_at": "2019-06-01 07:47:10.925000+00:00", "ended_at": "2019-06-01 07:54:06.608000+00:00", "duration": 415, "start_station_id": "383", "start_station_name": "Arkitekt Rivertz Plass", "start_station_description": "i Uelands gate", "start_station_latitude": 59.934936, "start_station_longitude": 10.749466, "end_station_id": "620", "end_station_name": "Bislettgata", "end_station_description": "ved Bislett Stadion", "end_station_latitude": 59.9238336, "end_station_longitude": 10.7346377}, {"started_at": "2019-06-01 07:47:14.403000+00:00", "ended_at": "2019-06-01 08:23:29.570000+00:00", "duration": 2175, "start_station_id": "511", "start_station_name": "Henrik Ibsens gate", "start_station_description": "ved Parkveien", "start_station_latitude": 59.915088, "start_station_longitude": 10.7222803, "end_station_id": "579", "end_station_name": "Bogstadveien", "end_station_description": "ved Sporveisgata", "end_station_latitude": 59.924732, "end_station_longitude": 10.724628}, {"started_at": "2019-06-01 07:47:23.317000+00:00", "ended_at": "2019-06-01 08:00:22.435000+00:00", "duration": 779, "start_station_id": "535", "start_station_name": "Uranienborgveien", "start_station_description": "Vest for Slottsparken", "start_station_latitude": 59.9200421, "start_station_longitude": 10.726634, "end_station_id": "412", "end_station_name": "Jakob kirke", "end_station_description": "langs Torggata", "end_station_latitude": 59.917866, "end_station_longitude": 10.754898}, {"started_at": "2019-06-01 07:47:25.896000+00:00", "ended_at": "2019-06-01 07:50:04.883000+00:00", "duration": 158, "start_station_id": "457", "start_station_name": "Trondheimsveien", "start_station_description": "Ved trikkestoppet", "start_station_latitude": 59.9230577, "start_station_longitude": 10.7717192, "end_station_id": "493", "end_station_name": "Sofienbergparken nordvest", "end_station_description": "ved Toftes gate", "end_station_latitude": 59.9243639, "end_station_longitude": 10.7615858}, {"started_at": "2019-06-01 07:47:27.153000+00:00", "ended_at": "2019-06-01 07:53:04.620000+00:00", "duration": 337, "start_station_id": "550", "start_station_name": "Thereses gate", "start_station_description": "ved Bislett kollektivholdeplass", "start_station_latitude": 59.9261462, "start_station_longitude": 10.7310355, "end_station_id": "413", "end_station_name": "Majorstuen", "end_station_description": "utenfor banken i Majorstukrysset", "end_station_latitude": 59.929045, "end_station_longitude": 10.716926}, {"started_at": "2019-06-01 07:47:29.565000+00:00", "ended_at": "2019-06-01 07:55:47.047000+00:00", "duration": 497, "start_station_id": "421", "start_station_name": "Alexander Kiellands Plass", "start_station_description": "ved Maridalsveien", "start_station_latitude": 59.928058, "start_station_longitude": 10.751397, "end_station_id": "599", "end_station_name": "Pal\u00e9haven", "end_station_description": "langs Strandgata", "end_station_latitude": 59.910331, "end_station_longitude": 10.75011}, {"started_at": "2019-06-01 07:47:31.527000+00:00", "ended_at": "2019-06-01 07:51:58.119000+00:00", "duration": 266, "start_station_id": "537", "start_station_name": "St. Olavs gate", "start_station_description": "ved Pilestredet", "start_station_latitude": 59.9179859, "start_station_longitude": 10.7385805, "end_station_id": "430", "end_station_name": "Spikersuppa Vest", "end_station_description": "mot Stortingsgata", "end_station_latitude": 59.9137965, "end_station_longitude": 10.7358023}, {"started_at": "2019-06-01 07:47:32.708000+00:00", "ended_at": "2019-06-01 07:53:50.442000+00:00", "duration": 377, "start_station_id": "742", "start_station_name": "Hasle", "start_station_description": "langs \u00d8kernveien", "start_station_latitude": 59.924342, "start_station_longitude": 10.79285, "end_station_id": "377", "end_station_name": "T\u00f8yenparken", "end_station_description": "ved Caltexl\u00f8kka", "end_station_latitude": 59.915667, "end_station_longitude": 10.7775665}, {"started_at": "2019-06-01 07:47:54.465000+00:00", "ended_at": "2019-06-01 07:53:40.310000+00:00", "duration": 345, "start_station_id": "581", "start_station_name": "Jordalgata", "start_station_description": "mellom bussholdeplassene p\u00e5 Galgeberg", "start_station_latitude": 59.908227, "start_station_longitude": 10.781088, "end_station_id": "507", "end_station_name": "Jens Bjelkes gate", "end_station_description": "ved Trondheimsveien", "end_station_latitude": 59.919179, "end_station_longitude": 10.764162}, {"started_at": "2019-06-01 07:48:16.022000+00:00", "ended_at": "2019-06-01 07:54:19.928000+00:00", "duration": 363, "start_station_id": "583", "start_station_name": "Galgeberg", "start_station_description": "Ved St. Halvards gate", "start_station_latitude": 59.9071, "start_station_longitude": 10.77921, "end_station_id": "577", "end_station_name": "Arkaden Nord", "end_station_description": "ved Dronningens gate", "end_station_latitude": 59.9121472, "end_station_longitude": 10.7480527}, {"started_at": "2019-06-01 07:48:16.742000+00:00", "ended_at": "2019-06-01 07:53:58.012000+00:00", "duration": 341, "start_station_id": "394", "start_station_name": "Bj\u00f8lsen Studentby", "start_station_description": "ved rundkj\u00f8ringen", "start_station_latitude": 59.94375, "start_station_longitude": 10.7603062, "end_station_id": "606", "end_station_name": "Stockfleths gate", "end_station_description": "ved Griffenfeldts gate", "end_station_latitude": 59.9339754, "end_station_longitude": 10.7521029}, {"started_at": "2019-06-01 07:48:35.756000+00:00", "ended_at": "2019-06-01 07:59:30.119000+00:00", "duration": 654, "start_station_id": "426", "start_station_name": "Gimle Kino", "start_station_description": "nedenfor Frogner Kirke", "start_station_latitude": 59.917202, "start_station_longitude": 10.708339, "end_station_id": "545", "end_station_name": "Arkaden S\u00f8r", "end_station_description": "ved Dronningens gate", "end_station_latitude": 59.9119691, "end_station_longitude": 10.7478583}, {"started_at": "2019-06-01 07:49:05.648000+00:00", "ended_at": "2019-06-01 07:55:55.364000+00:00", "duration": 409, "start_station_id": "551", "start_station_name": "Olaf Ryes plass", "start_station_description": "ved Sofienberggata", "start_station_latitude": 59.922425, "start_station_longitude": 10.758182, "end_station_id": "571", "end_station_name": "Over R\u00e5dhusgata", "end_station_description": "i Nedre Slottsgate", "end_station_latitude": 59.9101207, "end_station_longitude": 10.7407129}, {"started_at": "2019-06-01 07:50:10.095000+00:00", "ended_at": "2019-06-01 07:57:51.639000+00:00", "duration": 461, "start_station_id": "584", "start_station_name": "Henrik Wergelands all\u00e9", "start_station_description": "ved Bogstadveien", "start_station_latitude": 59.9268942, "start_station_longitude": 10.7207894, "end_station_id": "477", "end_station_name": "M\u00f8llergata", "end_station_description": "rett over Youngstorget", "end_station_latitude": 59.9154413, "end_station_longitude": 10.7485819}, {"started_at": "2019-06-01 07:50:15.515000+00:00", "ended_at": "2019-06-01 07:57:57.246000+00:00", "duration": 461, "start_station_id": "593", "start_station_name": "Bj\u00f8lsen m\u00f8lle", "start_station_description": "i Sandakerveien", "start_station_latitude": 59.9392, "start_station_longitude": 10.768774, "end_station_id": "424", "end_station_name": "Birkelunden", "end_station_description": "langs Seilduksgata", "end_station_latitude": 59.9256113, "end_station_longitude": 10.760926}, {"started_at": "2019-06-01 07:50:33.181000+00:00", "ended_at": "2019-06-01 07:56:03.078000+00:00", "duration": 329, "start_station_id": "588", "start_station_name": "Meltzers gate", "start_station_description": "ved Skovveien", "start_station_latitude": 59.9180141, "start_station_longitude": 10.7184345, "end_station_id": "413", "end_station_name": "Majorstuen", "end_station_description": "utenfor banken i Majorstukrysset", "end_station_latitude": 59.929045, "end_station_longitude": 10.716926}, {"started_at": "2019-06-01 07:50:48.274000+00:00", "ended_at": "2019-06-01 07:58:20.465000+00:00", "duration": 452, "start_station_id": "398", "start_station_name": "Ringnes Park", "start_station_description": "ved Sannergata", "start_station_latitude": 59.92852, "start_station_longitude": 10.76047, "end_station_id": "384", "end_station_name": "V\u00e5r Frelsers gravlund s\u00f8r", "end_station_description": "langs Ullev\u00e5lsveien", "end_station_latitude": 59.919463, "end_station_longitude": 10.743829}, {"started_at": "2019-06-01 07:50:50.325000+00:00", "ended_at": "2019-06-01 07:55:09.187000+00:00", "duration": 258, "start_station_id": "410", "start_station_name": "Landstads gate", "start_station_description": "ved Uelands gate", "start_station_latitude": 59.929005, "start_station_longitude": 10.7496755, "end_station_id": "578", "end_station_name": "Hallings gate", "end_station_description": "ved Dalsbergstien", "end_station_latitude": 59.922777, "end_station_longitude": 10.738655}, {"started_at": "2019-06-01 07:50:56.654000+00:00", "ended_at": "2019-06-01 08:08:54.841000+00:00", "duration": 1078, "start_station_id": "424", "start_station_name": "Birkelunden", "start_station_description": "langs Seilduksgata", "start_station_latitude": 59.9256113, "start_station_longitude": 10.760926, "end_station_id": "615", "end_station_name": "Munkedamsveien", "end_station_description": "Vest for Haakon VIIs gate", "end_station_latitude": 59.9135227, "end_station_longitude": 10.7301061}, {"started_at": "2019-06-01 07:50:57.607000+00:00", "ended_at": "2019-06-01 07:58:07.538000+00:00", "duration": 429, "start_station_id": "398", "start_station_name": "Ringnes Park", "start_station_description": "ved Sannergata", "start_station_latitude": 59.92852, "start_station_longitude": 10.76047, "end_station_id": "384", "end_station_name": "V\u00e5r Frelsers gravlund s\u00f8r", "end_station_description": "langs Ullev\u00e5lsveien", "end_station_latitude": 59.919463, "end_station_longitude": 10.743829}, {"started_at": "2019-06-01 07:51:08.304000+00:00", "ended_at": "2019-06-01 08:02:29.064000+00:00", "duration": 680, "start_station_id": "540", "start_station_name": "Lilleborgbanen", "start_station_description": "langs Ole Bulls gate", "start_station_latitude": 59.933727, "start_station_longitude": 10.769094, "end_station_id": "397", "end_station_name": "Storo Storsenter", "end_station_description": "langs Vitaminveien", "end_station_latitude": 59.946695, "end_station_longitude": 10.773871}, {"started_at": "2019-06-01 07:51:23.983000+00:00", "ended_at": "2019-06-01 07:56:47.513000+00:00", "duration": 323, "start_station_id": "394", "start_station_name": "Bj\u00f8lsen Studentby", "start_station_description": "ved rundkj\u00f8ringen", "start_station_latitude": 59.94375, "start_station_longitude": 10.7603062, "end_station_id": "438", "end_station_name": "BI Nydalen", "end_station_description": "ved hovedinngangen", "end_station_latitude": 59.949239, "end_station_longitude": 10.768576}, {"started_at": "2019-06-01 07:51:30.620000+00:00", "ended_at": "2019-06-01 08:03:58.712000+00:00", "duration": 748, "start_station_id": "507", "start_station_name": "Jens Bjelkes gate", "start_station_description": "ved Trondheimsveien", "start_station_latitude": 59.919179, "start_station_longitude": 10.764162, "end_station_id": "469", "end_station_name": "Studentparlamentet", "end_station_description": "ved Frydenlund holdeplass", "end_station_latitude": 59.920852, "end_station_longitude": 10.733357}, {"started_at": "2019-06-01 07:51:35.032000+00:00", "ended_at": "2019-06-01 07:59:59.313000+00:00", "duration": 504, "start_station_id": "480", "start_station_name": "Helga Helgesens plass", "start_station_description": "langs Gr\u00f8nlandsleiret", "start_station_latitude": 59.9121109, "start_station_longitude": 10.7661939, "end_station_id": "557", "end_station_name": "Akersgata", "end_station_description": "ved Grensen", "end_station_latitude": 59.9141971, "end_station_longitude": 10.7428828}, {"started_at": "2019-06-01 07:51:49.652000+00:00", "ended_at": "2019-06-01 08:01:55.161000+00:00", "duration": 605, "start_station_id": "443", "start_station_name": "Sj\u00f8siden \u00f8st", "start_station_description": "n\u00e6rmest trappen", "start_station_latitude": 59.910178, "start_station_longitude": 10.751824, "end_station_id": "401", "end_station_name": "Schous plass", "end_station_description": "n\u00e6rmest Thorvald Meyers gate", "end_station_latitude": 59.920259, "end_station_longitude": 10.760629}, {"started_at": "2019-06-01 07:51:51.772000+00:00", "ended_at": "2019-06-01 07:59:14.492000+00:00", "duration": 442, "start_station_id": "486", "start_station_name": "Det Teologiske fakultet", "start_station_description": "i Blindernveien", "start_station_latitude": 59.935342, "start_station_longitude": 10.726472, "end_station_id": "584", "end_station_name": "Henrik Wergelands all\u00e9", "end_station_description": "ved Bogstadveien", "end_station_latitude": 59.9268942, "end_station_longitude": 10.7207894}, {"started_at": "2019-06-01 07:52:00.264000+00:00", "ended_at": "2019-06-01 07:56:30.879000+00:00", "duration": 270, "start_station_id": "430", "start_station_name": "Spikersuppa Vest", "start_station_description": "mot Stortingsgata", "start_station_latitude": 59.9137965, "start_station_longitude": 10.7358023, "end_station_id": "443", "end_station_name": "Sj\u00f8siden \u00f8st", "end_station_description": "n\u00e6rmest trappen", "end_station_latitude": 59.910178, "end_station_longitude": 10.751824}, {"started_at": "2019-06-01 07:52:13.021000+00:00", "ended_at": "2019-06-01 08:04:48.267000+00:00", "duration": 755, "start_station_id": "459", "start_station_name": "Valkyrieplassen", "start_station_description": "langs Valkyriegata", "start_station_latitude": 59.9281319, "start_station_longitude": 10.71842, "end_station_id": "412", "end_station_name": "Jakob kirke", "end_station_description": "langs Torggata", "end_station_latitude": 59.917866, "end_station_longitude": 10.754898}, {"started_at": "2019-06-01 07:52:19.109000+00:00", "ended_at": "2019-06-01 07:58:32.416000+00:00", "duration": 373, "start_station_id": "415", "start_station_name": "Sinsenveien", "start_station_description": "ved Kongehellegata", "start_station_latitude": 59.929542, "start_station_longitude": 10.781053, "end_station_id": "408", "end_station_name": "T\u00f8yen skole", "end_station_description": "forsiden av skolebygget", "end_station_latitude": 59.914943, "end_station_longitude": 10.773977}, {"started_at": "2019-06-01 07:52:31.756000+00:00", "ended_at": "2019-06-01 07:56:03.128000+00:00", "duration": 211, "start_station_id": "514", "start_station_name": "Sofienberggata", "start_station_description": "ved Sars' gate", "start_station_latitude": 59.9212063, "start_station_longitude": 10.7699892, "end_station_id": "423", "end_station_name": "Schous plass", "end_station_description": "n\u00e6rmest rundkj\u00f8ringen", "end_station_latitude": 59.920335, "end_station_longitude": 10.760804}, {"started_at": "2019-06-01 07:53:28.406000+00:00", "ended_at": "2019-06-01 07:57:57.340000+00:00", "duration": 268, "start_station_id": "522", "start_station_name": "Mandalls gate", "start_station_description": "ved Gr\u00f8nlandsleiret", "start_station_latitude": 59.9123469, "start_station_longitude": 10.7638147, "end_station_id": "599", "end_station_name": "Pal\u00e9haven", "end_station_description": "langs Strandgata", "end_station_latitude": 59.910331, "end_station_longitude": 10.75011}, {"started_at": "2019-06-01 07:53:42.247000+00:00", "ended_at": "2019-06-01 08:00:19.234000+00:00", "duration": 396, "start_station_id": "440", "start_station_name": "Lakkegata", "start_station_description": "ved Sundtkvartalet", "start_station_latitude": 59.9172088, "start_station_longitude": 10.7622135, "end_station_id": "443", "end_station_name": "Sj\u00f8siden \u00f8st", "end_station_description": "n\u00e6rmest trappen", "end_station_latitude": 59.910178, "end_station_longitude": 10.751824}, {"started_at": "2019-06-01 07:53:54.237000+00:00", "ended_at": "2019-06-01 07:58:17.577000+00:00", "duration": 263, "start_station_id": "530", "start_station_name": "Holbergs Plass", "start_station_description": "ved Welhavens gate", "start_station_latitude": 59.9193095, "start_station_longitude": 10.7343051, "end_station_id": "481", "end_station_name": "R\u00e5dhusgata", "end_station_description": "ved Kontraskj\u00e6ret trikkestopp", "end_station_latitude": 59.910924, "end_station_longitude": 10.736215}, {"started_at": "2019-06-01 07:54:09.830000+00:00", "ended_at": "2019-06-01 08:10:44.169000+00:00", "duration": 994, "start_station_id": "563", "start_station_name": "Huitfeldts gate", "start_station_description": "mellom Cort Adelers gate og Observatoriegata", "start_station_latitude": 59.9126844, "start_station_longitude": 10.7229003, "end_station_id": "737", "end_station_name": "Munkegata trikkestopp", "end_station_description": "langs Oslo gate", "end_station_latitude": 59.908255, "end_station_longitude": 10.7678}, {"started_at": "2019-06-01 07:54:27.696000+00:00", "ended_at": "2019-06-01 08:03:03.423000+00:00", "duration": 515, "start_station_id": "460", "start_station_name": "Botanisk Hage s\u00f8r", "start_station_description": "langs Jens Bjelkes gate", "start_station_latitude": 59.9152819, "start_station_longitude": 10.7696199, "end_station_id": "463", "end_station_name": "Schous plass trikkestopp", "end_station_description": "ved biblioteket", "end_station_latitude": 59.9207284, "end_station_longitude": 10.7594857}, {"started_at": "2019-06-01 07:54:30.238000+00:00", "ended_at": "2019-06-01 08:03:15.338000+00:00", "duration": 525, "start_station_id": "493", "start_station_name": "Sofienbergparken nordvest", "start_station_description": "ved Toftes gate", "start_station_latitude": 59.9243639, "start_station_longitude": 10.7615858, "end_station_id": "401", "end_station_name": "Schous plass", "end_station_description": "n\u00e6rmest Thorvald Meyers gate", "end_station_latitude": 59.920259, "end_station_longitude": 10.760629}, {"started_at": "2019-06-01 07:54:45.586000+00:00", "ended_at": "2019-06-01 07:57:44.508000+00:00", "duration": 178, "start_station_id": "505", "start_station_name": "Marienlystparken", "start_station_description": "langs Kirkeveien", "start_station_latitude": 59.93215, "start_station_longitude": 10.723478, "end_station_id": "590", "end_station_name": "Majorstua skole", "end_station_description": "i S\u00f8rkedalsveien", "end_station_latitude": 59.9294351, "end_station_longitude": 10.7136816}, {"started_at": "2019-06-01 07:54:45.594000+00:00", "ended_at": "2019-06-01 08:07:18.722000+00:00", "duration": 753, "start_station_id": "460", "start_station_name": "Botanisk Hage s\u00f8r", "start_station_description": "langs Jens Bjelkes gate", "start_station_latitude": 59.9152819, "start_station_longitude": 10.7696199, "end_station_id": "599", "end_station_name": "Pal\u00e9haven", "end_station_description": "langs Strandgata", "end_station_latitude": 59.910331, "end_station_longitude": 10.75011}, {"started_at": "2019-06-01 07:54:58.214000+00:00", "ended_at": "2019-06-01 07:59:42.107000+00:00", "duration": 283, "start_station_id": "442", "start_station_name": "Vulkan", "start_station_description": "ved Maridalsveien", "start_station_latitude": 59.92251, "start_station_longitude": 10.75101, "end_station_id": "483", "end_station_name": "Hausmanns gate", "end_station_description": "vest for Akerselva", "end_station_latitude": 59.915451, "end_station_longitude": 10.758328}, {"started_at": "2019-06-01 07:55:03.367000+00:00", "ended_at": "2019-06-01 08:08:38.797000+00:00", "duration": 815, "start_station_id": "600", "start_station_name": "Dyvekes bru", "start_station_description": "ved skatepark", "start_station_latitude": 59.905323, "start_station_longitude": 10.7689579, "end_station_id": "477", "end_station_name": "M\u00f8llergata", "end_station_description": "rett over Youngstorget", "end_station_latitude": 59.9154413, "end_station_longitude": 10.7485819}, {"started_at": "2019-06-01 07:55:04.916000+00:00", "ended_at": "2019-06-01 08:17:33.218000+00:00", "duration": 1348, "start_station_id": "493", "start_station_name": "Sofienbergparken nordvest", "start_station_description": "ved Toftes gate", "start_station_latitude": 59.9243639, "start_station_longitude": 10.7615858, "end_station_id": "537", "end_station_name": "St. Olavs gate", "end_station_description": "ved Pilestredet", "end_station_latitude": 59.9179859, "end_station_longitude": 10.7385805}, {"started_at": "2019-06-01 07:55:34.532000+00:00", "ended_at": "2019-06-01 08:02:32.627000+00:00", "duration": 418, "start_station_id": "410", "start_station_name": "Landstads gate", "start_station_description": "ved Uelands gate", "start_station_latitude": 59.929005, "start_station_longitude": 10.7496755, "end_station_id": "620", "end_station_name": "Bislettgata", "end_station_description": "ved Bislett Stadion", "end_station_latitude": 59.9238336, "end_station_longitude": 10.7346377},